{
    "version": "1",
    "project": "afeefa.de",
    "updated_at": "2017-08-22T12:36:48.0Z",
    "name": "Freifunk Dresden",
    "nodes": [
{ "id":"100", "name":"Knoten 100 (Diego)", "node_type":"AccessPoint", "href":"http://10.200.0.101.freifunk-dresden.de/", "status":{"online":true, "clients":0,"lastcontact":"2017-08-22T12:36:48.0Z"},"position":{"lat":51.031204,"long":13.731938,"alt":0}},
{ "id":"101", "name":"Knoten 101 (Diego)", "node_type":"AccessPoint", "href":"http://10.200.0.102.freifunk-dresden.de/", "status":{"online":true, "clients":0,"lastcontact":"2017-08-22T12:36:48.0Z"},"position":{"lat":51.031189,"long":13.731934,"alt":0}},
{ "id":"102", "name":"Knoten 102 (Freifunk Dresden)", "node_type":"AccessPoint", "href":"http://10.200.0.103.freifunk-dresden.de/", "status":{"online":true, "clients":0,"lastcontact":"2017-08-22T12:36:48.0Z"},"position":{"lat":50.986905,"long":14.652368,"alt":0}},
{ "id":"111", "name":"Knoten 111 (Max)", "node_type":"AccessPoint", "href":"http://10.200.0.112.freifunk-dresden.de/", "status":{"online":true, "clients":0,"lastcontact":"2017-08-22T12:36:48.0Z"},"position":{"lat":51.033865,"long":13.653252,"alt":0}},
{ "id":"1002", "name":"Knoten 1002 (Diego)", "node_type":"AccessPoint", "href":"http://10.200.3.238.freifunk-dresden.de/", "status":{"online":true, "clients":8,"lastcontact":"2017-08-22T12:36:48.0Z"},"position":{"lat":51.031211,"long":13.731845,"alt":0}},
{ "id":"1004", "name":"Knoten 1004 (Freifunk+%40Zittau)", "node_type":"AccessPoint", "href":"http://10.200.3.240.freifunk-dresden.de/", "status":{"online":false, "clients":4,"lastcontact":"2017-08-22T12:36:48.0Z"},"position":{"lat":50.898642,"long":14.805699,"alt":0}},
{ "id":"1005", "name":"Knoten 1005 (FK)", "node_type":"AccessPoint", "href":"http://10.200.3.241.freifunk-dresden.de/", "status":{"online":true, "clients":1,"lastcontact":"2017-08-22T12:36:48.0Z"},"position":{"lat":51.085861,"long":13.73561,"alt":0}},
{ "id":"1006", "name":"Knoten 1006 (j03)", "node_type":"AccessPoint", "href":"http://10.200.3.242.freifunk-dresden.de/", "status":{"online":false, "clients":5,"lastcontact":"2017-08-22T12:36:48.0Z"},"position":{"lat":51.05777,"long":13.71005,"alt":0}},
{ "id":"1009", "name":"Knoten 1009 (Boselblick)", "node_type":"AccessPoint", "href":"http://10.200.3.245.freifunk-dresden.de/", "status":{"online":false, "clients":1,"lastcontact":"2017-08-22T12:36:48.0Z"},"position":{"lat":51.1369092,"long":13.5193634,"alt":0}},
{ "id":"1010", "name":"Knoten 1010 (Park+Herrenmode)", "node_type":"AccessPoint", "href":"http://10.200.3.246.freifunk-dresden.de/", "status":{"online":true, "clients":28,"lastcontact":"2017-08-22T12:36:48.0Z"},"position":{"lat":50.982416,"long":14.602702,"alt":0}},
{ "id":"1011", "name":"Knoten 1011 (D.G.+Networks)", "node_type":"AccessPoint", "href":"http://10.200.3.247.freifunk-dresden.de/", "status":{"online":true, "clients":1,"lastcontact":"2017-08-22T12:36:48.0Z"},"position":{"lat":51.0242538,"long":13.7966349,"alt":0}},
{ "id":"1013", "name":"Knoten 1013 (Stephan)", "node_type":"AccessPoint", "href":"http://10.200.3.249.freifunk-dresden.de/", "status":{"online":true, "clients":1,"lastcontact":"2017-08-22T12:36:48.0Z"},"position":{"lat":51.033963,"long":13.642754,"alt":0}},
{ "id":"1014", "name":"Knoten 1014 (Christian)", "node_type":"AccessPoint", "href":"http://10.200.3.250.freifunk-dresden.de/", "status":{"online":false, "clients":0,"lastcontact":"2017-08-22T12:36:48.0Z"},"position":{"lat":51.034667,"long":13.697183,"alt":0}},
{ "id":"1015", "name":"Knoten 1015 (Maximilian)", "node_type":"AccessPoint", "href":"http://10.200.3.251.freifunk-dresden.de/", "status":{"online":true, "clients":3,"lastcontact":"2017-08-22T12:36:48.0Z"},"position":{"lat":50.968910,"long":13.938661,"alt":0}},
{ "id":"1016", "name":"Knoten 1016 (Pension+Pufe)", "node_type":"AccessPoint", "href":"http://10.200.3.252.freifunk-dresden.de/", "status":{"online":true, "clients":1,"lastcontact":"2017-08-22T12:36:48.0Z"},"position":{"lat":50.99977,"long":14.64611,"alt":0}},
{ "id":"1018", "name":"Knoten 1018 (Maximilian)", "node_type":"AccessPoint", "href":"http://10.200.3.254.freifunk-dresden.de/", "status":{"online":true, "clients":2,"lastcontact":"2017-08-22T12:36:48.0Z"},"position":{"lat":47.402251,"long":8.499847,"alt":0}},
{ "id":"1019", "name":"Knoten 1019 ()", "node_type":"AccessPoint", "href":"http://10.200.3.255.freifunk-dresden.de/", "status":{"online":true, "clients":1,"lastcontact":"2017-08-22T12:36:48.0Z"},"position":{"lat":51.06846214,"long":13.75691593,"alt":0}},
{ "id":"1020", "name":"Knoten 1020 (Freifunk+Radebeul)", "node_type":"AccessPoint", "href":"http://10.200.4.1.freifunk-dresden.de/", "status":{"online":true, "clients":0,"lastcontact":"2017-08-22T12:36:48.0Z"},"position":{"lat":51.109231,"long":13.625550,"alt":0}},
{ "id":"1021", "name":"Knoten 1021 (cal00m)", "node_type":"AccessPoint", "href":"http://10.200.4.2.freifunk-dresden.de/", "status":{"online":true, "clients":7,"lastcontact":"2017-08-22T12:36:48.0Z"},"position":{"lat":51.0778238,"long":13.7487235,"alt":0}},
{ "id":"1022", "name":"Knoten 1022 (Patrick)", "node_type":"AccessPoint", "href":"http://10.200.4.3.freifunk-dresden.de/", "status":{"online":false, "clients":0,"lastcontact":"2017-08-22T12:36:48.0Z"},"position":{"lat":51.08878,"long":13.712941,"alt":0}},
{ "id":"1023", "name":"Knoten 1023 (Bruno)", "node_type":"AccessPoint", "href":"http://10.200.4.4.freifunk-dresden.de/", "status":{"online":true, "clients":0,"lastcontact":"2017-08-22T12:36:48.0Z"},"position":{"lat":51.0097,"long":13.689617,"alt":0}},
{ "id":"1024", "name":"Knoten 1024 (Marcel+G%C3%A4)", "node_type":"AccessPoint", "href":"http://10.200.4.5.freifunk-dresden.de/", "status":{"online":true, "clients":1,"lastcontact":"2017-08-22T12:36:48.0Z"},"position":{"lat":51.0456461,"long":13.6915027,"alt":0}},
{ "id":"1025", "name":"Knoten 1025 (Christian)", "node_type":"AccessPoint", "href":"http://10.200.4.6.freifunk-dresden.de/", "status":{"online":true, "clients":0,"lastcontact":"2017-08-22T12:36:48.0Z"},"position":{"lat":51.034205,"long":13.693855,"alt":0}},
{ "id":"1026", "name":"Knoten 1026 (Christian)", "node_type":"AccessPoint", "href":"http://10.200.4.7.freifunk-dresden.de/", "status":{"online":false, "clients":0,"lastcontact":"2017-08-22T12:36:48.0Z"},"position":{"lat":51.047836,"long":13.716920,"alt":0}},
{ "id":"1027", "name":"Knoten 1027 (HELIN+KEBAB+HAUS)", "node_type":"AccessPoint", "href":"http://10.200.4.8.freifunk-dresden.de/", "status":{"online":true, "clients":1,"lastcontact":"2017-08-22T12:36:48.0Z"},"position":{"lat":51.01543,"long":14.58115,"alt":0}},
{ "id":"1028", "name":"Knoten 1028 (FK)", "node_type":"AccessPoint", "href":"http://10.200.4.9.freifunk-dresden.de/", "status":{"online":true, "clients":1,"lastcontact":"2017-08-22T12:36:48.0Z"},"position":{"lat":51.085433,"long":13.734867,"alt":0}},
{ "id":"1029", "name":"Knoten 1029 (N.+A.)", "node_type":"AccessPoint", "href":"http://10.200.4.10.freifunk-dresden.de/", "status":{"online":true, "clients":0,"lastcontact":"2017-08-22T12:36:48.0Z"},"position":{"lat":51.022523,"long":13.746992,"alt":0}},
{ "id":"1030", "name":"Knoten 1030 (Mirko)", "node_type":"AccessPoint", "href":"http://10.200.4.11.freifunk-dresden.de/", "status":{"online":true, "clients":8,"lastcontact":"2017-08-22T12:36:48.0Z"},"position":{"lat":51.0883185,"long":13.7329092,"alt":0}},
{ "id":"1031", "name":"Knoten 1031 ()", "node_type":"AccessPoint", "href":"http://10.200.4.12.freifunk-dresden.de/", "status":{"online":true, "clients":1,"lastcontact":"2017-08-22T12:36:48.0Z"},"position":{"lat":51.080812,"long":13.711895,"alt":0}},
{ "id":"1032", "name":"Knoten 1032 (KIM+CHI+Imbiss)", "node_type":"AccessPoint", "href":"http://10.200.4.13.freifunk-dresden.de/", "status":{"online":true, "clients":6,"lastcontact":"2017-08-22T12:36:48.0Z"},"position":{"lat":50.98319,"long":14.61438,"alt":0}},
{ "id":"1033", "name":"Knoten 1033 (InetCafe-DD)", "node_type":"AccessPoint", "href":"http://10.200.4.14.freifunk-dresden.de/", "status":{"online":true, "clients":0,"lastcontact":"2017-08-22T12:36:48.0Z"},"position":{"lat":51.081545,"long":13.713781,"alt":0}},
{ "id":"1035", "name":"Knoten 1035 ()", "node_type":"AccessPoint", "href":"http://10.200.4.16.freifunk-dresden.de/", "status":{"online":false, "clients":2,"lastcontact":"2017-08-22T12:36:48.0Z"},"position":{"lat":51.037987,"long":13.699875,"alt":0}},
{ "id":"1039", "name":"Knoten 1039 (Horst)", "node_type":"AccessPoint", "href":"http://10.200.4.20.freifunk-dresden.de/", "status":{"online":true, "clients":1,"lastcontact":"2017-08-22T12:36:48.0Z"},"position":{"lat":51.02128,"long":13.76799,"alt":0}},
{ "id":"1040", "name":"Knoten 1040 (Freifunk)", "node_type":"AccessPoint", "href":"http://10.200.4.21.freifunk-dresden.de/", "status":{"online":false, "clients":1,"lastcontact":"2017-08-22T12:36:48.0Z"},"position":{"lat":47.414489,"long":8.539602,"alt":0}},
{ "id":"1041", "name":"Knoten 1041 (Maik)", "node_type":"AccessPoint", "href":"http://10.200.4.22.freifunk-dresden.de/", "status":{"online":true, "clients":0,"lastcontact":"2017-08-22T12:36:48.0Z"},"position":{"lat":51.1463,"long":14.3683,"alt":0}},
{ "id":"1042", "name":"Knoten 1042 (Maximilian)", "node_type":"AccessPoint", "href":"http://10.200.4.23.freifunk-dresden.de/", "status":{"online":true, "clients":0,"lastcontact":"2017-08-22T12:36:48.0Z"},"position":{"lat":51.066357,"long":13.751758,"alt":0}},
{ "id":"1043", "name":"Knoten 1043 (mcnesium)", "node_type":"AccessPoint", "href":"http://10.200.4.24.freifunk-dresden.de/", "status":{"online":true, "clients":3,"lastcontact":"2017-08-22T12:36:48.0Z"},"position":{"lat":51.033090,"long":13.732260,"alt":0}},
{ "id":"1044", "name":"Knoten 1044 (Bruno)", "node_type":"AccessPoint", "href":"http://10.200.4.25.freifunk-dresden.de/", "status":{"online":true, "clients":0,"lastcontact":"2017-08-22T12:36:48.0Z"},"position":{"lat":51.0097,"long":13.689617,"alt":0}},
{ "id":"1045", "name":"Knoten 1045 (Mathias)", "node_type":"AccessPoint", "href":"http://10.200.4.26.freifunk-dresden.de/", "status":{"online":true, "clients":0,"lastcontact":"2017-08-22T12:36:48.0Z"},"position":{"lat":51.162502,"long":13.485031,"alt":0}},
{ "id":"1046", "name":"Knoten 1046 (Max)", "node_type":"AccessPoint", "href":"http://10.200.4.27.freifunk-dresden.de/", "status":{"online":true, "clients":11,"lastcontact":"2017-08-22T12:36:48.0Z"},"position":{"lat":51.042941,"long":13.735853,"alt":0}},
{ "id":"1047", "name":"Knoten 1047 (Christian)", "node_type":"AccessPoint", "href":"http://10.200.4.28.freifunk-dresden.de/", "status":{"online":true, "clients":0,"lastcontact":"2017-08-22T12:36:48.0Z"},"position":{"lat":51.035078,"long":13.696247,"alt":0}},
{ "id":"1048", "name":"Knoten 1048 (Mirko)", "node_type":"AccessPoint", "href":"http://10.200.4.29.freifunk-dresden.de/", "status":{"online":true, "clients":1,"lastcontact":"2017-08-22T12:36:48.0Z"},"position":{"lat":51.089025,"long":13.730992,"alt":0}},
{ "id":"1050", "name":"Knoten 1050 (Mario+)", "node_type":"AccessPoint", "href":"http://10.200.4.31.freifunk-dresden.de/", "status":{"online":true, "clients":2,"lastcontact":"2017-08-22T12:36:48.0Z"},"position":{"lat":51.04201721041046,"long":13.669658517842435,"alt":0}},
{ "id":"1051", "name":"Knoten 1051 (Patrick)", "node_type":"AccessPoint", "href":"http://10.200.4.32.freifunk-dresden.de/", "status":{"online":true, "clients":13,"lastcontact":"2017-08-22T12:36:48.0Z"},"position":{"lat":51.033645,"long":13.741332,"alt":0}},
{ "id":"1052", "name":"Knoten 1052 (Mathias)", "node_type":"AccessPoint", "href":"http://10.200.4.33.freifunk-dresden.de/", "status":{"online":true, "clients":0,"lastcontact":"2017-08-22T12:36:48.0Z"},"position":{"lat":51.162401,"long":13.485694,"alt":0}},
{ "id":"1055", "name":"Knoten 1055 (Tho)", "node_type":"AccessPoint", "href":"http://10.200.4.36.freifunk-dresden.de/", "status":{"online":false, "clients":0,"lastcontact":"2017-08-22T12:36:48.0Z"},"position":{"lat":50.68351,"long":13.02008,"alt":0}},
{ "id":"1056", "name":"Knoten 1056 (Stephan)", "node_type":"AccessPoint", "href":"http://10.200.4.37.freifunk-dresden.de/", "status":{"online":true, "clients":0,"lastcontact":"2017-08-22T12:36:48.0Z"},"position":{"lat":51.033928,"long":13.642753,"alt":0}},
{ "id":"1057", "name":"Knoten 1057 (Mirko)", "node_type":"AccessPoint", "href":"http://10.200.4.38.freifunk-dresden.de/", "status":{"online":true, "clients":0,"lastcontact":"2017-08-22T12:36:48.0Z"},"position":{"lat":51.08829533,"long":13.73299,"alt":0}},
{ "id":"1059", "name":"Knoten 1059 (Maximilian)", "node_type":"AccessPoint", "href":"http://10.200.4.40.freifunk-dresden.de/", "status":{"online":true, "clients":0,"lastcontact":"2017-08-22T12:36:48.0Z"},"position":{"lat":51.066160,"long":13.751581,"alt":0}},
{ "id":"1060", "name":"Knoten 1060 (j03)", "node_type":"AccessPoint", "href":"http://10.200.4.41.freifunk-dresden.de/", "status":{"online":true, "clients":3,"lastcontact":"2017-08-22T12:36:48.0Z"},"position":{"lat":51.055784,"long":13.759918,"alt":0}},
{ "id":"1061", "name":"Knoten 1061 ()", "node_type":"AccessPoint", "href":"http://10.200.4.42.freifunk-dresden.de/", "status":{"online":false, "clients":1,"lastcontact":"2017-08-22T12:36:48.0Z"},"position":{"lat":51.077969,"long":13.733827,"alt":0}},
{ "id":"1062", "name":"Knoten 1062 (Sport+Live+Rammenau)", "node_type":"AccessPoint", "href":"http://10.200.4.43.freifunk-dresden.de/", "status":{"online":true, "clients":17,"lastcontact":"2017-08-22T12:36:48.0Z"},"position":{"lat":51.15161,"long":14.13200,"alt":0}},
{ "id":"1063", "name":"Knoten 1063 (Matze)", "node_type":"AccessPoint", "href":"http://10.200.4.44.freifunk-dresden.de/", "status":{"online":true, "clients":26,"lastcontact":"2017-08-22T12:36:48.0Z"},"position":{"lat":50.91982,"long":13.32468,"alt":0}},
{ "id":"1064", "name":"Knoten 1064 (j03)", "node_type":"AccessPoint", "href":"http://10.200.4.45.freifunk-dresden.de/", "status":{"online":false, "clients":4,"lastcontact":"2017-08-22T12:36:48.0Z"},"position":{"lat":51.037705,"long":13.852340,"alt":0}},
{ "id":"1065", "name":"Knoten 1065 (Diego)", "node_type":"AccessPoint", "href":"http://10.200.4.46.freifunk-dresden.de/", "status":{"online":true, "clients":0,"lastcontact":"2017-08-22T12:36:48.0Z"},"position":{"lat":51.061027,"long":13.751653,"alt":0}},
{ "id":"1066", "name":"Knoten 1066 (Diego)", "node_type":"AccessPoint", "href":"http://10.200.4.47.freifunk-dresden.de/", "status":{"online":true, "clients":0,"lastcontact":"2017-08-22T12:36:48.0Z"},"position":{"lat":51.061134,"long":13.75157,"alt":0}},
{ "id":"1067", "name":"Knoten 1067 (Freifunk+Radebeul)", "node_type":"AccessPoint", "href":"http://10.200.4.48.freifunk-dresden.de/", "status":{"online":true, "clients":0,"lastcontact":"2017-08-22T12:36:48.0Z"},"position":{"lat":51.106078,"long":13.658984,"alt":0}},
{ "id":"1068", "name":"Knoten 1068 (Hannes+Hilgendorf)", "node_type":"AccessPoint", "href":"http://10.200.4.49.freifunk-dresden.de/", "status":{"online":true, "clients":1,"lastcontact":"2017-08-22T12:36:48.0Z"},"position":{"lat":51.38484,"long":14.40347,"alt":0}},
{ "id":"1069", "name":"Knoten 1069 (enjoy+cafe+restaurant)", "node_type":"AccessPoint", "href":"http://10.200.4.50.freifunk-dresden.de/", "status":{"online":true, "clients":4,"lastcontact":"2017-08-22T12:36:48.0Z"},"position":{"lat":51.12825,"long":14.17962,"alt":0}},
{ "id":"1070", "name":"Knoten 1070 (Marcel+G%C3%A4)", "node_type":"AccessPoint", "href":"http://10.200.4.51.freifunk-dresden.de/", "status":{"online":true, "clients":2,"lastcontact":"2017-08-22T12:36:48.0Z"},"position":{"lat":51.0456461,"long":13.6915027,"alt":0}},
{ "id":"1073", "name":"Knoten 1073 (KSV+90+Neugersdorf+e.V.)", "node_type":"AccessPoint", "href":"http://10.200.4.54.freifunk-dresden.de/", "status":{"online":false, "clients":0,"lastcontact":"2017-08-22T12:36:48.0Z"},"position":{"lat":50.97602,"long":14.61071,"alt":0}},
{ "id":"1075", "name":"Knoten 1075 (neuromute)", "node_type":"AccessPoint", "href":"http://10.200.4.56.freifunk-dresden.de/", "status":{"online":false, "clients":0,"lastcontact":"2017-08-22T12:36:48.0Z"},"position":{"lat":51.027026383825806,"long":13.83940726518631,"alt":0}},
{ "id":"1076", "name":"Knoten 1076 (FeWo+Heyne)", "node_type":"AccessPoint", "href":"http://10.200.4.57.freifunk-dresden.de/", "status":{"online":true, "clients":0,"lastcontact":"2017-08-22T12:36:48.0Z"},"position":{"lat":51.163163,"long":13.572066,"alt":0}},
{ "id":"1077", "name":"Knoten 1077 (FK)", "node_type":"AccessPoint", "href":"http://10.200.4.58.freifunk-dresden.de/", "status":{"online":true, "clients":0,"lastcontact":"2017-08-22T12:36:48.0Z"},"position":{"lat":51.085861,"long":13.73561,"alt":0}},
{ "id":"1079", "name":"Knoten 1079 (Piratenpartei+Sachsen)", "node_type":"AccessPoint", "href":"http://10.200.4.60.freifunk-dresden.de/", "status":{"online":true, "clients":40,"lastcontact":"2017-08-22T12:36:48.0Z"},"position":{"lat":51.054959,"long":13.724629,"alt":0}},
{ "id":"1080", "name":"Knoten 1080 (Umweltzentrum+Dresden+e.V.)", "node_type":"AccessPoint", "href":"http://10.200.4.61.freifunk-dresden.de/", "status":{"online":true, "clients":4,"lastcontact":"2017-08-22T12:36:48.0Z"},"position":{"lat":51.054484,"long":13.726166,"alt":0}},
{ "id":"1082", "name":"Knoten 1082 (Christian)", "node_type":"AccessPoint", "href":"http://10.200.4.63.freifunk-dresden.de/", "status":{"online":true, "clients":0,"lastcontact":"2017-08-22T12:36:48.0Z"},"position":{"lat":51.035108,"long":13.701181,"alt":0}},
{ "id":"1083", "name":"Knoten 1083 (Christian)", "node_type":"AccessPoint", "href":"http://10.200.4.64.freifunk-dresden.de/", "status":{"online":true, "clients":0,"lastcontact":"2017-08-22T12:36:48.0Z"},"position":{"lat":51.034552,"long":13.694498,"alt":0}},
{ "id":"1084", "name":"Knoten 1084 (Robert)", "node_type":"AccessPoint", "href":"http://10.200.4.65.freifunk-dresden.de/", "status":{"online":true, "clients":0,"lastcontact":"2017-08-22T12:36:48.0Z"},"position":{"lat":51.091838,"long":13.712262,"alt":0}},
{ "id":"1085", "name":"Knoten 1085 (citizen1234)", "node_type":"AccessPoint", "href":"http://10.200.4.66.freifunk-dresden.de/", "status":{"online":true, "clients":6,"lastcontact":"2017-08-22T12:36:48.0Z"},"position":{"lat":51.0794804,"long":13.7171571,"alt":0}},
{ "id":"1087", "name":"Knoten 1087 (Kadampa+Meditationszentrum+Dresden)", "node_type":"AccessPoint", "href":"http://10.200.4.68.freifunk-dresden.de/", "status":{"online":false, "clients":0,"lastcontact":"2017-08-22T12:36:48.0Z"},"position":{"lat":51.061076,"long":13.752050,"alt":0}},
{ "id":"1088", "name":"Knoten 1088 (Markwart+Faussner)", "node_type":"AccessPoint", "href":"http://10.200.4.69.freifunk-dresden.de/", "status":{"online":true, "clients":0,"lastcontact":"2017-08-22T12:36:48.0Z"},"position":{"lat":51.062286,"long":13.750348,"alt":0}},
{ "id":"1089", "name":"Knoten 1089 (GIAMBI+PIZZA)", "node_type":"AccessPoint", "href":"http://10.200.4.70.freifunk-dresden.de/", "status":{"online":false, "clients":0,"lastcontact":"2017-08-22T12:36:48.0Z"},"position":{"lat":50.97616,"long":14.61002,"alt":0}},
{ "id":"1090", "name":"Knoten 1090 (Buwiwaldi)", "node_type":"AccessPoint", "href":"http://10.200.4.71.freifunk-dresden.de/", "status":{"online":true, "clients":0,"lastcontact":"2017-08-22T12:36:48.0Z"},"position":{"lat":51.059507600226326,"long":13.77170741907321,"alt":0}},
{ "id":"1092", "name":"Knoten 1092 (Christian)", "node_type":"AccessPoint", "href":"http://10.200.4.73.freifunk-dresden.de/", "status":{"online":true, "clients":1,"lastcontact":"2017-08-22T12:36:48.0Z"},"position":{"lat":51.035093,"long":13.701434,"alt":0}},
{ "id":"1095", "name":"Knoten 1095 (Silberteich-Wetter)", "node_type":"AccessPoint", "href":"http://10.200.4.76.freifunk-dresden.de/", "status":{"online":true, "clients":0,"lastcontact":"2017-08-22T12:36:48.0Z"},"position":{"lat":50.958336,"long":14.651184,"alt":0}},
{ "id":"1096", "name":"Knoten 1096 (Matze)", "node_type":"AccessPoint", "href":"http://10.200.4.77.freifunk-dresden.de/", "status":{"online":true, "clients":1,"lastcontact":"2017-08-22T12:36:48.0Z"},"position":{"lat":51.007550,"long":13.826930,"alt":0}},
{ "id":"1097", "name":"Knoten 1097 (Maximilian)", "node_type":"AccessPoint", "href":"http://10.200.4.78.freifunk-dresden.de/", "status":{"online":true, "clients":1,"lastcontact":"2017-08-22T12:36:48.0Z"},"position":{"lat":50.969169,"long":13.939906,"alt":0}},
{ "id":"1098", "name":"Knoten 1098 (Uwe)", "node_type":"AccessPoint", "href":"http://10.200.4.79.freifunk-dresden.de/", "status":{"online":true, "clients":2,"lastcontact":"2017-08-22T12:36:48.0Z"},"position":{"lat":51.029031,"long":13.777562,"alt":0}},
{ "id":"1099", "name":"Knoten 1099 ()", "node_type":"AccessPoint", "href":"http://10.200.4.80.freifunk-dresden.de/", "status":{"online":true, "clients":0,"lastcontact":"2017-08-22T12:36:48.0Z"},"position":{"lat":51.060083,"long":13.741202,"alt":0}},
{ "id":"1101", "name":"Knoten 1101 (Ulf+Riechen)", "node_type":"AccessPoint", "href":"http://10.200.4.82.freifunk-dresden.de/", "status":{"online":false, "clients":1,"lastcontact":"2017-08-22T12:36:48.0Z"},"position":{"lat":51.0457,"long":13.86213,"alt":0}},
{ "id":"1102", "name":"Knoten 1102 (Paul+Hackenberg)", "node_type":"AccessPoint", "href":"http://10.200.4.83.freifunk-dresden.de/", "status":{"online":true, "clients":0,"lastcontact":"2017-08-22T12:36:48.0Z"},"position":{"lat":51.076312,"long":13.724539,"alt":0}},
{ "id":"1103", "name":"Knoten 1103 (FK)", "node_type":"AccessPoint", "href":"http://10.200.4.84.freifunk-dresden.de/", "status":{"online":true, "clients":0,"lastcontact":"2017-08-22T12:36:48.0Z"},"position":{"lat":51.03317,"long":13.795942,"alt":0}},
{ "id":"1104", "name":"Knoten 1104 (Sven+Wernicke)", "node_type":"AccessPoint", "href":"http://10.200.4.85.freifunk-dresden.de/", "status":{"online":true, "clients":0,"lastcontact":"2017-08-22T12:36:48.0Z"},"position":{"lat":51.047525,"long":13.797770,"alt":0}},
{ "id":"1105", "name":"Knoten 1105 (Torsten)", "node_type":"AccessPoint", "href":"http://10.200.4.86.freifunk-dresden.de/", "status":{"online":true, "clients":0,"lastcontact":"2017-08-22T12:36:48.0Z"},"position":{"lat":51.038476,"long":13.793994,"alt":0}},
{ "id":"1107", "name":"Knoten 1107 (D.G.+Networks)", "node_type":"AccessPoint", "href":"http://10.200.4.88.freifunk-dresden.de/", "status":{"online":true, "clients":1,"lastcontact":"2017-08-22T12:36:48.0Z"},"position":{"lat":51.0242538,"long":13.7966349,"alt":0}},
{ "id":"1110", "name":"Knoten 1110 (pschu)", "node_type":"AccessPoint", "href":"http://10.200.4.91.freifunk-dresden.de/", "status":{"online":true, "clients":0,"lastcontact":"2017-08-22T12:36:48.0Z"},"position":{"lat":51.007457,"long":13.839334,"alt":0}},
{ "id":"1111", "name":"Knoten 1111 (Janosch)", "node_type":"AccessPoint", "href":"http://10.200.4.92.freifunk-dresden.de/", "status":{"online":true, "clients":2,"lastcontact":"2017-08-22T12:36:48.0Z"},"position":{"lat":51.075382,"long":13.791249,"alt":0}},
{ "id":"1112", "name":"Knoten 1112 (Wums+e.V.)", "node_type":"AccessPoint", "href":"http://10.200.4.93.freifunk-dresden.de/", "status":{"online":true, "clients":0,"lastcontact":"2017-08-22T12:36:48.0Z"},"position":{"lat":51.045002,"long":13.705255,"alt":0}},
{ "id":"1114", "name":"Knoten 1114 (Interrobang-Freifunk)", "node_type":"AccessPoint", "href":"http://10.200.4.95.freifunk-dresden.de/", "status":{"online":true, "clients":0,"lastcontact":"2017-08-22T12:36:48.0Z"},"position":{"lat":51.06643,"long":13.75724,"alt":0}},
{ "id":"1115", "name":"Knoten 1115 (Wums+e.V.)", "node_type":"AccessPoint", "href":"http://10.200.4.96.freifunk-dresden.de/", "status":{"online":true, "clients":4,"lastcontact":"2017-08-22T12:36:48.0Z"},"position":{"lat":51.045002,"long":13.705255,"alt":0}},
{ "id":"1116", "name":"Knoten 1116 (Evilham)", "node_type":"AccessPoint", "href":"http://10.200.4.97.freifunk-dresden.de/", "status":{"online":false, "clients":3,"lastcontact":"2017-08-22T12:36:48.0Z"},"position":{"lat":51.033896,"long":13.703752,"alt":0}},
{ "id":"1117", "name":"Knoten 1117 (Colin)", "node_type":"AccessPoint", "href":"http://10.200.4.98.freifunk-dresden.de/", "status":{"online":true, "clients":0,"lastcontact":"2017-08-22T12:36:48.0Z"},"position":{"lat":51.05995,"long":13.78611,"alt":0}},
{ "id":"1118", "name":"Knoten 1118 (Andreas)", "node_type":"AccessPoint", "href":"http://10.200.4.99.freifunk-dresden.de/", "status":{"online":true, "clients":4,"lastcontact":"2017-08-22T12:36:48.0Z"},"position":{"lat":51.306123,"long":13.300710,"alt":0}},
{ "id":"1119", "name":"Knoten 1119 (Steak+Inn+Hotel+und+Restaurant)", "node_type":"AccessPoint", "href":"http://10.200.4.100.freifunk-dresden.de/", "status":{"online":true, "clients":8,"lastcontact":"2017-08-22T12:36:48.0Z"},"position":{"lat":51.03876,"long":14.53762,"alt":0}},
{ "id":"1120", "name":"Knoten 1120 (j03)", "node_type":"AccessPoint", "href":"http://10.200.4.101.freifunk-dresden.de/", "status":{"online":false, "clients":9,"lastcontact":"2017-08-22T12:36:48.0Z"},"position":{"lat":51.05777,"long":13.71005,"alt":0}},
{ "id":"1121", "name":"Knoten 1121 (Internationales+Begegnungs+Zentrum+)", "node_type":"AccessPoint", "href":"http://10.200.4.102.freifunk-dresden.de/", "status":{"online":true, "clients":0,"lastcontact":"2017-08-22T12:36:48.0Z"},"position":{"lat":50.963318,"long":13.942166,"alt":0}},
{ "id":"1122", "name":"Knoten 1122 (langhaarschneider)", "node_type":"AccessPoint", "href":"http://10.200.4.103.freifunk-dresden.de/", "status":{"online":false, "clients":0,"lastcontact":"2017-08-22T12:36:48.0Z"},"position":{"lat":50.963128,"long":13.809148,"alt":0}},
{ "id":"1123", "name":"Knoten 1123 (R.+Hafemann)", "node_type":"AccessPoint", "href":"http://10.200.4.104.freifunk-dresden.de/", "status":{"online":true, "clients":26,"lastcontact":"2017-08-22T12:36:48.0Z"},"position":{"lat":51.493333,"long":13.980833,"alt":0}},
{ "id":"1125", "name":"Knoten 1125 (fasnix)", "node_type":"AccessPoint", "href":"http://10.200.4.106.freifunk-dresden.de/", "status":{"online":true, "clients":0,"lastcontact":"2017-08-22T12:36:48.0Z"},"position":{"lat":51.05093,"long":13.73246,"alt":0}},
{ "id":"1126", "name":"Knoten 1126 (Eivissa+Caf%C3%A9%2C+Bistro+and+Bar)", "node_type":"AccessPoint", "href":"http://10.200.4.107.freifunk-dresden.de/", "status":{"online":true, "clients":3,"lastcontact":"2017-08-22T12:36:48.0Z"},"position":{"lat":51.062300,"long":13.750440,"alt":0}},
{ "id":"1127", "name":"Knoten 1127 ()", "node_type":"AccessPoint", "href":"http://10.200.4.108.freifunk-dresden.de/", "status":{"online":true, "clients":0,"lastcontact":"2017-08-22T12:36:48.0Z"},"position":{"lat":51.033554,"long":13.685192,"alt":0}},
{ "id":"1128", "name":"Knoten 1128 (Ecke+Nord+%2F+datenkollektiv.net)", "node_type":"AccessPoint", "href":"http://10.200.4.109.freifunk-dresden.de/", "status":{"online":true, "clients":3,"lastcontact":"2017-08-22T12:36:48.0Z"},"position":{"lat":51.0700518,"long":13.7614827,"alt":0}},
{ "id":"1129", "name":"Knoten 1129 (Alexander)", "node_type":"AccessPoint", "href":"http://10.200.4.110.freifunk-dresden.de/", "status":{"online":true, "clients":5,"lastcontact":"2017-08-22T12:36:48.0Z"},"position":{"lat":51.04195,"long":13.70355,"alt":0}},
{ "id":"1130", "name":"Knoten 1130 (Pension+Pufe)", "node_type":"AccessPoint", "href":"http://10.200.4.111.freifunk-dresden.de/", "status":{"online":true, "clients":0,"lastcontact":"2017-08-22T12:36:48.0Z"},"position":{"lat":50.99982,"long":14.64629,"alt":0}},
{ "id":"1131", "name":"Knoten 1131 (Christian)", "node_type":"AccessPoint", "href":"http://10.200.4.112.freifunk-dresden.de/", "status":{"online":true, "clients":1,"lastcontact":"2017-08-22T12:36:48.0Z"},"position":{"lat":50.991375,"long":13.812599,"alt":0}},
{ "id":"1132", "name":"Knoten 1132 (Christian)", "node_type":"AccessPoint", "href":"http://10.200.4.113.freifunk-dresden.de/", "status":{"online":true, "clients":0,"lastcontact":"2017-08-22T12:36:48.0Z"},"position":{"lat":51.035147,"long":13.701174,"alt":0}},
{ "id":"1134", "name":"Knoten 1134 (Patrick)", "node_type":"AccessPoint", "href":"http://10.200.4.115.freifunk-dresden.de/", "status":{"online":false, "clients":1,"lastcontact":"2017-08-22T12:36:48.0Z"},"position":{"lat":51.03366,"long":13.741231,"alt":0}},
{ "id":"1136", "name":"Knoten 1136 (ST8)", "node_type":"AccessPoint", "href":"http://10.200.4.117.freifunk-dresden.de/", "status":{"online":true, "clients":3,"lastcontact":"2017-08-22T12:36:48.0Z"},"position":{"lat":51.04253,"long":13.70326,"alt":0}},
{ "id":"1137", "name":"Knoten 1137 (Villa+Rosenstein)", "node_type":"AccessPoint", "href":"http://10.200.4.118.freifunk-dresden.de/", "status":{"online":false, "clients":0,"lastcontact":"2017-08-22T12:36:48.0Z"},"position":{"lat":50.93346,"long":14.06397,"alt":0}},
{ "id":"1138", "name":"Knoten 1138 (CSD+Dresden+e.V.)", "node_type":"AccessPoint", "href":"http://10.200.4.119.freifunk-dresden.de/", "status":{"online":true, "clients":9,"lastcontact":"2017-08-22T12:36:48.0Z"},"position":{"lat":51.04309,"long":13.72048,"alt":0}},
{ "id":"1140", "name":"Knoten 1140 (Freifunk+Radebeul)", "node_type":"AccessPoint", "href":"http://10.200.4.121.freifunk-dresden.de/", "status":{"online":true, "clients":0,"lastcontact":"2017-08-22T12:36:48.0Z"},"position":{"lat":51.1645004,"long":13.4703819,"alt":0}},
{ "id":"1142", "name":"Knoten 1142 (Stephan)", "node_type":"AccessPoint", "href":"http://10.200.4.123.freifunk-dresden.de/", "status":{"online":true, "clients":15,"lastcontact":"2017-08-22T12:36:48.0Z"},"position":{"lat":51.066172,"long":13.751463,"alt":0}},
{ "id":"1143", "name":"Knoten 1143 (Torsten)", "node_type":"AccessPoint", "href":"http://10.200.4.124.freifunk-dresden.de/", "status":{"online":true, "clients":3,"lastcontact":"2017-08-22T12:36:48.0Z"},"position":{"lat":51.038967,"long":13.793933,"alt":0}},
{ "id":"1144", "name":"Knoten 1144 (Marcus)", "node_type":"AccessPoint", "href":"http://10.200.4.125.freifunk-dresden.de/", "status":{"online":true, "clients":0,"lastcontact":"2017-08-22T12:36:48.0Z"},"position":{"lat":51.035398,"long":13.797909,"alt":0}},
{ "id":"1147", "name":"Knoten 1147 (Umweltzentrum+Dresden+e.V.)", "node_type":"AccessPoint", "href":"http://10.200.4.128.freifunk-dresden.de/", "status":{"online":true, "clients":0,"lastcontact":"2017-08-22T12:36:48.0Z"},"position":{"lat":51.054599,"long":13.726477,"alt":0}},
{ "id":"1148", "name":"Knoten 1148 (Kaitbachpark)", "node_type":"AccessPoint", "href":"http://10.200.4.129.freifunk-dresden.de/", "status":{"online":false, "clients":0,"lastcontact":"2017-08-22T12:36:48.0Z"},"position":{"lat":51.026923,"long":13.763363,"alt":0}},
{ "id":"1150", "name":"Knoten 1150 (KSG+Dresden)", "node_type":"AccessPoint", "href":"http://10.200.4.131.freifunk-dresden.de/", "status":{"online":true, "clients":5,"lastcontact":"2017-08-22T12:36:48.0Z"},"position":{"lat":51.035007,"long":13.723501,"alt":0}},
{ "id":"1151", "name":"Knoten 1151 (Rosenwerk)", "node_type":"AccessPoint", "href":"http://10.200.4.132.freifunk-dresden.de/", "status":{"online":false, "clients":0,"lastcontact":"2017-08-22T12:36:48.0Z"},"position":{"lat":51.046137,"long":13.715153,"alt":0}},
{ "id":"1153", "name":"Knoten 1153 ()", "node_type":"AccessPoint", "href":"http://10.200.4.134.freifunk-dresden.de/", "status":{"online":true, "clients":1,"lastcontact":"2017-08-22T12:36:48.0Z"},"position":{"lat":51.0297730,"long":13.7598480,"alt":0}},
{ "id":"1154", "name":"Knoten 1154 (Alexander)", "node_type":"AccessPoint", "href":"http://10.200.4.135.freifunk-dresden.de/", "status":{"online":false, "clients":2,"lastcontact":"2017-08-22T12:36:48.0Z"},"position":{"lat":51.03937,"long":13.70094,"alt":0}},
{ "id":"1155", "name":"Knoten 1155 (Mathias)", "node_type":"AccessPoint", "href":"http://10.200.4.136.freifunk-dresden.de/", "status":{"online":true, "clients":9,"lastcontact":"2017-08-22T12:36:48.0Z"},"position":{"lat":51.035321,"long":13.702320,"alt":0}},
{ "id":"1157", "name":"Knoten 1157 (HALLO+PIZZA+Bautzen)", "node_type":"AccessPoint", "href":"http://10.200.4.138.freifunk-dresden.de/", "status":{"online":true, "clients":5,"lastcontact":"2017-08-22T12:36:48.0Z"},"position":{"lat":51.18218,"long":14.43031,"alt":0}},
{ "id":"1158", "name":"Knoten 1158 (Freifunk+Radebeul)", "node_type":"AccessPoint", "href":"http://10.200.4.139.freifunk-dresden.de/", "status":{"online":true, "clients":0,"lastcontact":"2017-08-22T12:36:48.0Z"},"position":{"lat":51.104651,"long":13.632493,"alt":0}},
{ "id":"1159", "name":"Knoten 1159 (Andr%C3%A9)", "node_type":"AccessPoint", "href":"http://10.200.4.140.freifunk-dresden.de/", "status":{"online":true, "clients":2,"lastcontact":"2017-08-22T12:36:48.0Z"},"position":{"lat":51.03819,"long":13.69800,"alt":0}},
{ "id":"1160", "name":"Knoten 1160 (Christian)", "node_type":"AccessPoint", "href":"http://10.200.4.141.freifunk-dresden.de/", "status":{"online":true, "clients":3,"lastcontact":"2017-08-22T12:36:48.0Z"},"position":{"lat":51.034603,"long":13.695662,"alt":0}},
{ "id":"1161", "name":"Knoten 1161 (Andreas)", "node_type":"AccessPoint", "href":"http://10.200.4.142.freifunk-dresden.de/", "status":{"online":true, "clients":0,"lastcontact":"2017-08-22T12:36:48.0Z"},"position":{"lat":50.986231,"long":14.652213,"alt":0}},
{ "id":"1162", "name":"Knoten 1162 (Tiandaro)", "node_type":"AccessPoint", "href":"http://10.200.4.143.freifunk-dresden.de/", "status":{"online":true, "clients":0,"lastcontact":"2017-08-22T12:36:48.0Z"},"position":{"lat":51.082558,"long":13.712223,"alt":0}},
{ "id":"1163", "name":"Knoten 1163 (Horst)", "node_type":"AccessPoint", "href":"http://10.200.4.144.freifunk-dresden.de/", "status":{"online":true, "clients":1,"lastcontact":"2017-08-22T12:36:48.0Z"},"position":{"lat":51.06858,"long":13.74835,"alt":0}},
{ "id":"1164", "name":"Knoten 1164 (Christian)", "node_type":"AccessPoint", "href":"http://10.200.4.145.freifunk-dresden.de/", "status":{"online":true, "clients":4,"lastcontact":"2017-08-22T12:36:48.0Z"},"position":{"lat":51.079369,"long":13.660782,"alt":0}},
{ "id":"1165", "name":"Knoten 1165 (Silberteich-Wetter)", "node_type":"AccessPoint", "href":"http://10.200.4.146.freifunk-dresden.de/", "status":{"online":true, "clients":0,"lastcontact":"2017-08-22T12:36:48.0Z"},"position":{"lat":50.958336,"long":14.651184,"alt":0}},
{ "id":"1167", "name":"Knoten 1167 (Christian)", "node_type":"AccessPoint", "href":"http://10.200.4.148.freifunk-dresden.de/", "status":{"online":true, "clients":0,"lastcontact":"2017-08-22T12:36:48.0Z"},"position":{"lat":50.991375,"long":13.812599,"alt":0}},
{ "id":"1168", "name":"Knoten 1168 (Ella)", "node_type":"AccessPoint", "href":"http://10.200.4.149.freifunk-dresden.de/", "status":{"online":true, "clients":0,"lastcontact":"2017-08-22T12:36:48.0Z"},"position":{"lat":51.032661,"long":13.697509,"alt":0}},
{ "id":"1169", "name":"Knoten 1169 (Hausprojekt+2n40)", "node_type":"AccessPoint", "href":"http://10.200.4.150.freifunk-dresden.de/", "status":{"online":true, "clients":0,"lastcontact":"2017-08-22T12:36:48.0Z"},"position":{"lat":51.01313,"long":13.76970,"alt":0}},
{ "id":"1171", "name":"Knoten 1171 (Christian)", "node_type":"AccessPoint", "href":"http://10.200.4.152.freifunk-dresden.de/", "status":{"online":false, "clients":7,"lastcontact":"2017-08-22T12:36:48.0Z"},"position":{"lat":50.991484,"long":13.812753,"alt":0}},
{ "id":"1172", "name":"Knoten 1172 (xport.de)", "node_type":"AccessPoint", "href":"http://10.200.4.153.freifunk-dresden.de/", "status":{"online":true, "clients":0,"lastcontact":"2017-08-22T12:36:48.0Z"},"position":{"lat":51.061874,"long":13.740920,"alt":0}},
{ "id":"1173", "name":"Knoten 1173 (j03)", "node_type":"AccessPoint", "href":"http://10.200.4.154.freifunk-dresden.de/", "status":{"online":false, "clients":1,"lastcontact":"2017-08-22T12:36:48.0Z"},"position":{"lat":51.037705,"long":13.852340,"alt":0}},
{ "id":"1174", "name":"Knoten 1174 (Verfallmanager)", "node_type":"AccessPoint", "href":"http://10.200.4.155.freifunk-dresden.de/", "status":{"online":true, "clients":0,"lastcontact":"2017-08-22T12:36:48.0Z"},"position":{"lat":51.0593735,"long":13.769898,"alt":0}},
{ "id":"1175", "name":"Knoten 1175 (Raginmar)", "node_type":"AccessPoint", "href":"http://10.200.4.156.freifunk-dresden.de/", "status":{"online":true, "clients":4,"lastcontact":"2017-08-22T12:36:48.0Z"},"position":{"lat":51.0292,"long":13.7782,"alt":0}},
{ "id":"1177", "name":"Knoten 1177 (Christian)", "node_type":"AccessPoint", "href":"http://10.200.4.158.freifunk-dresden.de/", "status":{"online":true, "clients":0,"lastcontact":"2017-08-22T12:36:48.0Z"},"position":{"lat":51.034582,"long":13.695203,"alt":0}},
{ "id":"1178", "name":"Knoten 1178 (Andreas+Pech)", "node_type":"AccessPoint", "href":"http://10.200.4.159.freifunk-dresden.de/", "status":{"online":true, "clients":0,"lastcontact":"2017-08-22T12:36:48.0Z"},"position":{"lat":50.986164,"long":14.652064,"alt":0}},
{ "id":"1180", "name":"Knoten 1180 ()", "node_type":"AccessPoint", "href":"http://10.200.4.161.freifunk-dresden.de/", "status":{"online":true, "clients":0,"lastcontact":"2017-08-22T12:36:48.0Z"},"position":{"lat":51.066838,"long":13.751503,"alt":0}},
{ "id":"1182", "name":"Knoten 1182 (Christian)", "node_type":"AccessPoint", "href":"http://10.200.4.163.freifunk-dresden.de/", "status":{"online":true, "clients":2,"lastcontact":"2017-08-22T12:36:48.0Z"},"position":{"lat":51.034606,"long":13.693778,"alt":0}},
{ "id":"1183", "name":"Knoten 1183 (Christian)", "node_type":"AccessPoint", "href":"http://10.200.4.164.freifunk-dresden.de/", "status":{"online":true, "clients":3,"lastcontact":"2017-08-22T12:36:48.0Z"},"position":{"lat":51.079362,"long":13.660748,"alt":0}},
{ "id":"1185", "name":"Knoten 1185 (Christian)", "node_type":"AccessPoint", "href":"http://10.200.4.166.freifunk-dresden.de/", "status":{"online":false, "clients":0,"lastcontact":"2017-08-22T12:36:48.0Z"},"position":{"lat":51.079367,"long":13.660790,"alt":0}},
{ "id":"1186", "name":"Knoten 1186 (Reimar)", "node_type":"AccessPoint", "href":"http://10.200.4.167.freifunk-dresden.de/", "status":{"online":true, "clients":0,"lastcontact":"2017-08-22T12:36:48.0Z"},"position":{"lat":51.0418,"long":13.63195,"alt":0}},
{ "id":"1187", "name":"Knoten 1187 (Christian)", "node_type":"AccessPoint", "href":"http://10.200.4.168.freifunk-dresden.de/", "status":{"online":true, "clients":2,"lastcontact":"2017-08-22T12:36:48.0Z"},"position":{"lat":51.047836,"long":13.716920,"alt":0}},
{ "id":"1188", "name":"Knoten 1188 (Falscher+Hase)", "node_type":"AccessPoint", "href":"http://10.200.4.169.freifunk-dresden.de/", "status":{"online":true, "clients":0,"lastcontact":"2017-08-22T12:36:48.0Z"},"position":{"lat":51.072309,"long":13.747403,"alt":0}},
{ "id":"1189", "name":"Knoten 1189 (Janek)", "node_type":"AccessPoint", "href":"http://10.200.4.170.freifunk-dresden.de/", "status":{"online":true, "clients":0,"lastcontact":"2017-08-22T12:36:48.0Z"},"position":{"lat":51.042191,"long":13.800914,"alt":0}},
{ "id":"1190", "name":"Knoten 1190 (cal00m)", "node_type":"AccessPoint", "href":"http://10.200.4.171.freifunk-dresden.de/", "status":{"online":true, "clients":4,"lastcontact":"2017-08-22T12:36:48.0Z"},"position":{"lat":51.077811,"long":13.749096,"alt":0}},
{ "id":"1191", "name":"Knoten 1191 (Lars+Marschke)", "node_type":"AccessPoint", "href":"http://10.200.4.172.freifunk-dresden.de/", "status":{"online":true, "clients":1,"lastcontact":"2017-08-22T12:36:48.0Z"},"position":{"lat":51.0474745,"long":13.7976248,"alt":0}},
{ "id":"1192", "name":"Knoten 1192 (Gruene+Ecke)", "node_type":"AccessPoint", "href":"http://10.200.4.173.freifunk-dresden.de/", "status":{"online":true, "clients":0,"lastcontact":"2017-08-22T12:36:48.0Z"},"position":{"lat":51.0720387,"long":13.7474888,"alt":0}},
{ "id":"1194", "name":"Knoten 1194 (Christian)", "node_type":"AccessPoint", "href":"http://10.200.4.175.freifunk-dresden.de/", "status":{"online":true, "clients":1,"lastcontact":"2017-08-22T12:36:48.0Z"},"position":{"lat":51.047836,"long":13.716920,"alt":0}},
{ "id":"1195", "name":"Knoten 1195 (FAS+Dresden+%2F+datenkollektiv.net)", "node_type":"AccessPoint", "href":"http://10.200.4.176.freifunk-dresden.de/", "status":{"online":true, "clients":11,"lastcontact":"2017-08-22T12:36:48.0Z"},"position":{"lat":51.072841,"long":13.770183,"alt":0}},
{ "id":"1196", "name":"Knoten 1196 (Isabel)", "node_type":"AccessPoint", "href":"http://10.200.4.177.freifunk-dresden.de/", "status":{"online":true, "clients":3,"lastcontact":"2017-08-22T12:36:48.0Z"},"position":{"lat":51.034197,"long":13.643275,"alt":0}},
{ "id":"1197", "name":"Knoten 1197 (Silberteich-Wetter)", "node_type":"AccessPoint", "href":"http://10.200.4.178.freifunk-dresden.de/", "status":{"online":true, "clients":0,"lastcontact":"2017-08-22T12:36:48.0Z"},"position":{"lat":50.946633,"long":14.609888,"alt":0}},
{ "id":"1198", "name":"Knoten 1198 (Christian)", "node_type":"AccessPoint", "href":"http://10.200.4.179.freifunk-dresden.de/", "status":{"online":true, "clients":4,"lastcontact":"2017-08-22T12:36:48.0Z"},"position":{"lat":51.047836,"long":13.716920,"alt":0}},
{ "id":"1199", "name":"Knoten 1199 (Rosenwerk)", "node_type":"AccessPoint", "href":"http://10.200.4.180.freifunk-dresden.de/", "status":{"online":true, "clients":3,"lastcontact":"2017-08-22T12:36:48.0Z"},"position":{"lat":51.046231,"long":13.715981,"alt":0}},
{ "id":"1200", "name":"Knoten 1200 (Rosenwerk)", "node_type":"AccessPoint", "href":"http://10.200.4.181.freifunk-dresden.de/", "status":{"online":true, "clients":4,"lastcontact":"2017-08-22T12:36:48.0Z"},"position":{"lat":51.046375,"long":13.716036,"alt":0}},
{ "id":"1201", "name":"Knoten 1201 (Rosenwerk)", "node_type":"AccessPoint", "href":"http://10.200.4.182.freifunk-dresden.de/", "status":{"online":true, "clients":0,"lastcontact":"2017-08-22T12:36:48.0Z"},"position":{"lat":51.046131,"long":13.715474,"alt":0}},
{ "id":"1202", "name":"Knoten 1202 (Christian)", "node_type":"AccessPoint", "href":"http://10.200.4.183.freifunk-dresden.de/", "status":{"online":false, "clients":1,"lastcontact":"2017-08-22T12:36:48.0Z"},"position":{"lat":51.047836,"long":13.716920,"alt":0}},
{ "id":"1203", "name":"Knoten 1203 (Chris)", "node_type":"AccessPoint", "href":"http://10.200.4.184.freifunk-dresden.de/", "status":{"online":true, "clients":0,"lastcontact":"2017-08-22T12:36:48.0Z"},"position":{"lat":51.071422,"long":13.737218,"alt":0}},
{ "id":"1205", "name":"Knoten 1205 (Christian)", "node_type":"AccessPoint", "href":"http://10.200.4.186.freifunk-dresden.de/", "status":{"online":true, "clients":0,"lastcontact":"2017-08-22T12:36:48.0Z"},"position":{"lat":51.047836,"long":13.716920,"alt":0}},
{ "id":"1206", "name":"Knoten 1206 (datenkollektiv.net)", "node_type":"AccessPoint", "href":"http://10.200.4.187.freifunk-dresden.de/", "status":{"online":true, "clients":1,"lastcontact":"2017-08-22T12:36:48.0Z"},"position":{"lat":51.069435,"long":13.760881,"alt":0}},
{ "id":"1207", "name":"Knoten 1207 (KSV+90+Neugersdorf+e.V.)", "node_type":"AccessPoint", "href":"http://10.200.4.188.freifunk-dresden.de/", "status":{"online":true, "clients":0,"lastcontact":"2017-08-22T12:36:48.0Z"},"position":{"lat":50.97579,"long":14.61067,"alt":0}},
{ "id":"1208", "name":"Knoten 1208 (Kulturkiste)", "node_type":"AccessPoint", "href":"http://10.200.4.189.freifunk-dresden.de/", "status":{"online":true, "clients":0,"lastcontact":"2017-08-22T12:36:48.0Z"},"position":{"lat":50.962348,"long":13.942753,"alt":0}},
{ "id":"1209", "name":"Knoten 1209 (Ella)", "node_type":"AccessPoint", "href":"http://10.200.4.190.freifunk-dresden.de/", "status":{"online":true, "clients":0,"lastcontact":"2017-08-22T12:36:48.0Z"},"position":{"lat":51.032592,"long":13.697454,"alt":0}},
{ "id":"1210", "name":"Knoten 1210 (Kulturkiste)", "node_type":"AccessPoint", "href":"http://10.200.4.191.freifunk-dresden.de/", "status":{"online":true, "clients":1,"lastcontact":"2017-08-22T12:36:48.0Z"},"position":{"lat":50.962358,"long":13.942848,"alt":0}},
{ "id":"1211", "name":"Knoten 1211 (Evangelisch-Lutherische+Kirchgemeinde+Ottendorf-Okrilla)", "node_type":"AccessPoint", "href":"http://10.200.4.192.freifunk-dresden.de/", "status":{"online":true, "clients":2,"lastcontact":"2017-08-22T12:36:48.0Z"},"position":{"lat":51.186991,"long":13.834373,"alt":0}},
{ "id":"1213", "name":"Knoten 1213 (Rosenwerk)", "node_type":"AccessPoint", "href":"http://10.200.4.194.freifunk-dresden.de/", "status":{"online":true, "clients":0,"lastcontact":"2017-08-22T12:36:48.0Z"},"position":{"lat":51.046212,"long":13.715705,"alt":0}},
{ "id":"1215", "name":"Knoten 1215 (Hotel+Appartement-Villa+Ulenburg)", "node_type":"AccessPoint", "href":"http://10.200.4.196.freifunk-dresden.de/", "status":{"online":true, "clients":1,"lastcontact":"2017-08-22T12:36:48.0Z"},"position":{"lat":51.060298,"long":13.821888,"alt":0}},
{ "id":"1216", "name":"Knoten 1216 (Qeens)", "node_type":"AccessPoint", "href":"http://10.200.4.197.freifunk-dresden.de/", "status":{"online":false, "clients":0,"lastcontact":"2017-08-22T12:36:48.0Z"},"position":{"lat":51.081333,"long":13.713434,"alt":0}},
{ "id":"1217", "name":"Knoten 1217 (Christian)", "node_type":"AccessPoint", "href":"http://10.200.4.198.freifunk-dresden.de/", "status":{"online":true, "clients":5,"lastcontact":"2017-08-22T12:36:48.0Z"},"position":{"lat":50.991484,"long":13.812753,"alt":0}},
{ "id":"1218", "name":"Knoten 1218 (Christian)", "node_type":"AccessPoint", "href":"http://10.200.4.199.freifunk-dresden.de/", "status":{"online":true, "clients":3,"lastcontact":"2017-08-22T12:36:48.0Z"},"position":{"lat":50.991484,"long":13.812753,"alt":0}},
{ "id":"1219", "name":"Knoten 1219 (Christian)", "node_type":"AccessPoint", "href":"http://10.200.4.200.freifunk-dresden.de/", "status":{"online":true, "clients":0,"lastcontact":"2017-08-22T12:36:48.0Z"},"position":{"lat":51.034880,"long":13.694807,"alt":0}},
{ "id":"1220", "name":"Knoten 1220 (Christian)", "node_type":"AccessPoint", "href":"http://10.200.4.201.freifunk-dresden.de/", "status":{"online":true, "clients":6,"lastcontact":"2017-08-22T12:36:48.0Z"},"position":{"lat":50.991484,"long":13.812753,"alt":0}},
{ "id":"1221", "name":"Knoten 1221 (Farbschock+Tattoo)", "node_type":"AccessPoint", "href":"http://10.200.4.202.freifunk-dresden.de/", "status":{"online":true, "clients":3,"lastcontact":"2017-08-22T12:36:48.0Z"},"position":{"lat":50.97697,"long":14.60390,"alt":0}},
{ "id":"1222", "name":"Knoten 1222 (wbs)", "node_type":"AccessPoint", "href":"http://10.200.4.203.freifunk-dresden.de/", "status":{"online":true, "clients":3,"lastcontact":"2017-08-22T12:36:48.0Z"},"position":{"lat":51.0559936,"long":13.7205678,"alt":0}},
{ "id":"1225", "name":"Knoten 1225 (langhaarschneider)", "node_type":"AccessPoint", "href":"http://10.200.4.206.freifunk-dresden.de/", "status":{"online":false, "clients":0,"lastcontact":"2017-08-22T12:36:48.0Z"},"position":{"lat":50.970115,"long":13.795782,"alt":0}},
{ "id":"1227", "name":"Knoten 1227 (Danny)", "node_type":"AccessPoint", "href":"http://10.200.4.208.freifunk-dresden.de/", "status":{"online":true, "clients":7,"lastcontact":"2017-08-22T12:36:48.0Z"},"position":{"lat":51.056717,"long":13.711689,"alt":0}},
{ "id":"1228", "name":"Knoten 1228 (drombo)", "node_type":"AccessPoint", "href":"http://10.200.4.209.freifunk-dresden.de/", "status":{"online":true, "clients":0,"lastcontact":"2017-08-22T12:36:48.0Z"},"position":{"lat":51.098051,"long":13.714997,"alt":0}},
{ "id":"1230", "name":"Knoten 1230 (Uwe)", "node_type":"AccessPoint", "href":"http://10.200.4.211.freifunk-dresden.de/", "status":{"online":true, "clients":1,"lastcontact":"2017-08-22T12:36:48.0Z"},"position":{"lat":51.028977,"long":13.777417,"alt":0}},
{ "id":"1231", "name":"Knoten 1231 (Christian)", "node_type":"AccessPoint", "href":"http://10.200.4.212.freifunk-dresden.de/", "status":{"online":true, "clients":1,"lastcontact":"2017-08-22T12:36:48.0Z"},"position":{"lat":50.991375,"long":13.812599,"alt":0}},
{ "id":"1232", "name":"Knoten 1232 (Piratenpartei+Sachsen)", "node_type":"AccessPoint", "href":"http://10.200.4.213.freifunk-dresden.de/", "status":{"online":false, "clients":2,"lastcontact":"2017-08-22T12:36:48.0Z"},"position":{"lat":51.054915,"long":13.724651,"alt":0}},
{ "id":"1233", "name":"Knoten 1233 (langhaarschneider)", "node_type":"AccessPoint", "href":"http://10.200.4.214.freifunk-dresden.de/", "status":{"online":true, "clients":5,"lastcontact":"2017-08-22T12:36:48.0Z"},"position":{"lat":50.965380,"long":13.808418,"alt":0}},
{ "id":"1234", "name":"Knoten 1234 ()", "node_type":"AccessPoint", "href":"http://10.200.4.215.freifunk-dresden.de/", "status":{"online":true, "clients":6,"lastcontact":"2017-08-22T12:36:48.0Z"},"position":{"lat":50.980422,"long":13.581875,"alt":0}},
{ "id":"1235", "name":"Knoten 1235 (ubahn)", "node_type":"AccessPoint", "href":"http://10.200.4.216.freifunk-dresden.de/", "status":{"online":true, "clients":1,"lastcontact":"2017-08-22T12:36:48.0Z"},"position":{"lat":51.04301,"long":13.70818,"alt":0}},
{ "id":"1236", "name":"Knoten 1236 (Sebastian)", "node_type":"AccessPoint", "href":"http://10.200.4.217.freifunk-dresden.de/", "status":{"online":true, "clients":3,"lastcontact":"2017-08-22T12:36:48.0Z"},"position":{"lat":51.168654533775516,"long":13.470177054405212,"alt":0}},
{ "id":"1237", "name":"Knoten 1237 (tmp)", "node_type":"AccessPoint", "href":"http://10.200.4.218.freifunk-dresden.de/", "status":{"online":true, "clients":0,"lastcontact":"2017-08-22T12:36:48.0Z"},"position":{"lat":51.046032,"long":13.691368,"alt":0}},
{ "id":"1238", "name":"Knoten 1238 (datenkollektiv.net)", "node_type":"AccessPoint", "href":"http://10.200.4.219.freifunk-dresden.de/", "status":{"online":true, "clients":2,"lastcontact":"2017-08-22T12:36:48.0Z"},"position":{"lat":51.069394,"long":13.761030,"alt":0}},
{ "id":"1239", "name":"Knoten 1239 (Raginmar)", "node_type":"AccessPoint", "href":"http://10.200.4.220.freifunk-dresden.de/", "status":{"online":true, "clients":0,"lastcontact":"2017-08-22T12:36:48.0Z"},"position":{"lat":51.16184,"long":13.90615,"alt":0}},
{ "id":"1240", "name":"Knoten 1240 (Christian)", "node_type":"AccessPoint", "href":"http://10.200.4.221.freifunk-dresden.de/", "status":{"online":false, "clients":0,"lastcontact":"2017-08-22T12:36:48.0Z"},"position":{"lat":51.034544,"long":13.694275,"alt":0}},
{ "id":"1241", "name":"Knoten 1241 (Energie+Agentur+Oberlausitz)", "node_type":"AccessPoint", "href":"http://10.200.4.222.freifunk-dresden.de/", "status":{"online":true, "clients":1,"lastcontact":"2017-08-22T12:36:48.0Z"},"position":{"lat":50.98233,"long":14.66271,"alt":0}},
{ "id":"1242", "name":"Knoten 1242 (Umweltzentrum+Dresden+e.V.)", "node_type":"AccessPoint", "href":"http://10.200.4.223.freifunk-dresden.de/", "status":{"online":false, "clients":1,"lastcontact":"2017-08-22T12:36:48.0Z"},"position":{"lat":51.054505,"long":13.726309,"alt":0}},
{ "id":"1243", "name":"Knoten 1243 (Christian)", "node_type":"AccessPoint", "href":"http://10.200.4.224.freifunk-dresden.de/", "status":{"online":true, "clients":0,"lastcontact":"2017-08-22T12:36:48.0Z"},"position":{"lat":51.034576,"long":13.695002,"alt":0}},
{ "id":"1244", "name":"Knoten 1244 (Christian)", "node_type":"AccessPoint", "href":"http://10.200.4.225.freifunk-dresden.de/", "status":{"online":true, "clients":2,"lastcontact":"2017-08-22T12:36:48.0Z"},"position":{"lat":51.079404,"long":13.660963,"alt":0}},
{ "id":"1246", "name":"Knoten 1246 (Hirakim)", "node_type":"AccessPoint", "href":"http://10.200.4.227.freifunk-dresden.de/", "status":{"online":true, "clients":0,"lastcontact":"2017-08-22T12:36:48.0Z"},"position":{"lat":51.023538,"long":13.684201,"alt":0}},
{ "id":"1248", "name":"Knoten 1248 (enjoy+cafe+restaurant)", "node_type":"AccessPoint", "href":"http://10.200.4.229.freifunk-dresden.de/", "status":{"online":true, "clients":6,"lastcontact":"2017-08-22T12:36:48.0Z"},"position":{"lat":51.18114,"long":14.42409,"alt":0}},
{ "id":"1249", "name":"Knoten 1249 (Christian)", "node_type":"AccessPoint", "href":"http://10.200.4.230.freifunk-dresden.de/", "status":{"online":true, "clients":1,"lastcontact":"2017-08-22T12:36:48.0Z"},"position":{"lat":50.991375,"long":13.812599,"alt":0}},
{ "id":"1251", "name":"Knoten 1251 (Christian)", "node_type":"AccessPoint", "href":"http://10.200.4.232.freifunk-dresden.de/", "status":{"online":true, "clients":4,"lastcontact":"2017-08-22T12:36:48.0Z"},"position":{"lat":51.047836,"long":13.716920,"alt":0}},
{ "id":"1252", "name":"Knoten 1252 (Oberkretscham+Leutersdorf)", "node_type":"AccessPoint", "href":"http://10.200.4.233.freifunk-dresden.de/", "status":{"online":true, "clients":3,"lastcontact":"2017-08-22T12:36:48.0Z"},"position":{"lat":50.95822,"long":14.64808,"alt":0}},
{ "id":"1253", "name":"Knoten 1253 (Oberkretscham+Leutersdorf)", "node_type":"AccessPoint", "href":"http://10.200.4.234.freifunk-dresden.de/", "status":{"online":true, "clients":4,"lastcontact":"2017-08-22T12:36:48.0Z"},"position":{"lat":50.95823,"long":14.64817,"alt":0}},
{ "id":"1254", "name":"Knoten 1254 (Oberkretscham+Leutersdorf)", "node_type":"AccessPoint", "href":"http://10.200.4.235.freifunk-dresden.de/", "status":{"online":true, "clients":1,"lastcontact":"2017-08-22T12:36:48.0Z"},"position":{"lat":50.95825,"long":14.64801,"alt":0}},
{ "id":"1255", "name":"Knoten 1255 (Dorfgemeinschaftshaus+Neueibau)", "node_type":"AccessPoint", "href":"http://10.200.4.236.freifunk-dresden.de/", "status":{"online":true, "clients":0,"lastcontact":"2017-08-22T12:36:48.0Z"},"position":{"lat":50.97322,"long":14.64400,"alt":0}},
{ "id":"1256", "name":"Knoten 1256 (Parkplatz+Turnhallenweg+9)", "node_type":"AccessPoint", "href":"http://10.200.4.237.freifunk-dresden.de/", "status":{"online":false, "clients":0,"lastcontact":"2017-08-22T12:36:48.0Z"},"position":{"lat":50.97446,"long":14.64367,"alt":0}},
{ "id":"1258", "name":"Knoten 1258 (Christian)", "node_type":"AccessPoint", "href":"http://10.200.4.239.freifunk-dresden.de/", "status":{"online":true, "clients":0,"lastcontact":"2017-08-22T12:36:48.0Z"},"position":{"lat":51.034840,"long":13.696075,"alt":0}},
{ "id":"1260", "name":"Knoten 1260 (Evangelisch-Lutherische+Kirchgemeinde+Ottendorf-Okrilla)", "node_type":"AccessPoint", "href":"http://10.200.4.241.freifunk-dresden.de/", "status":{"online":true, "clients":0,"lastcontact":"2017-08-22T12:36:48.0Z"},"position":{"lat":51.187250,"long":13.834209,"alt":0}},
{ "id":"1261", "name":"Knoten 1261 (Evangelisch-Lutherische+Kirchgemeinde+Ottendorf-Okrilla)", "node_type":"AccessPoint", "href":"http://10.200.4.242.freifunk-dresden.de/", "status":{"online":true, "clients":2,"lastcontact":"2017-08-22T12:36:48.0Z"},"position":{"lat":51.187154,"long":13.833702,"alt":0}},
{ "id":"1262", "name":"Knoten 1262 (Christian)", "node_type":"AccessPoint", "href":"http://10.200.4.243.freifunk-dresden.de/", "status":{"online":true, "clients":4,"lastcontact":"2017-08-22T12:36:48.0Z"},"position":{"lat":51.047836,"long":13.716920,"alt":0}},
{ "id":"1263", "name":"Knoten 1263 (F%C3%B6nix+Frisuren)", "node_type":"AccessPoint", "href":"http://10.200.4.244.freifunk-dresden.de/", "status":{"online":true, "clients":1,"lastcontact":"2017-08-22T12:36:48.0Z"},"position":{"lat":50.93198,"long":14.61883,"alt":0}},
{ "id":"1264", "name":"Knoten 1264 (Christian)", "node_type":"AccessPoint", "href":"http://10.200.4.245.freifunk-dresden.de/", "status":{"online":true, "clients":1,"lastcontact":"2017-08-22T12:36:48.0Z"},"position":{"lat":50.991375,"long":13.812599,"alt":0}},
{ "id":"1266", "name":"Knoten 1266 (Silberteich-Wetter)", "node_type":"AccessPoint", "href":"http://10.200.4.247.freifunk-dresden.de/", "status":{"online":true, "clients":0,"lastcontact":"2017-08-22T12:36:48.0Z"},"position":{"lat":50.946633,"long":14.609888,"alt":0}},
{ "id":"1268", "name":"Knoten 1268 (bakeryshop.de)", "node_type":"AccessPoint", "href":"http://10.200.4.249.freifunk-dresden.de/", "status":{"online":true, "clients":0,"lastcontact":"2017-08-22T12:36:48.0Z"},"position":{"lat":50.986122,"long":14.652199,"alt":0}},
{ "id":"1269", "name":"Knoten 1269 ()", "node_type":"AccessPoint", "href":"http://10.200.4.250.freifunk-dresden.de/", "status":{"online":true, "clients":0,"lastcontact":"2017-08-22T12:36:48.0Z"},"position":{"lat":51.029879,"long":13.759858,"alt":0}},
{ "id":"1270", "name":"Knoten 1270 (Datenkollektiv.net)", "node_type":"AccessPoint", "href":"http://10.200.4.251.freifunk-dresden.de/", "status":{"online":true, "clients":9,"lastcontact":"2017-08-22T12:36:48.0Z"},"position":{"lat":51.0268187,"long":13.7588749,"alt":0}},
{ "id":"1271", "name":"Knoten 1271 (Oliver)", "node_type":"AccessPoint", "href":"http://10.200.4.252.freifunk-dresden.de/", "status":{"online":true, "clients":0,"lastcontact":"2017-08-22T12:36:48.0Z"},"position":{"lat":51.04288,"long":13.70781,"alt":0}},
{ "id":"1272", "name":"Knoten 1272 (AUTOFIT+Oderwitz)", "node_type":"AccessPoint", "href":"http://10.200.4.253.freifunk-dresden.de/", "status":{"online":false, "clients":2,"lastcontact":"2017-08-22T12:36:48.0Z"},"position":{"lat":50.94228,"long":14.74158,"alt":0}},
{ "id":"1273", "name":"Knoten 1273 (Pension+Pufe)", "node_type":"AccessPoint", "href":"http://10.200.4.254.freifunk-dresden.de/", "status":{"online":true, "clients":5,"lastcontact":"2017-08-22T12:36:48.0Z"},"position":{"lat":50.99976,"long":14.64648,"alt":0}},
{ "id":"1274", "name":"Knoten 1274 (Christian)", "node_type":"AccessPoint", "href":"http://10.200.4.255.freifunk-dresden.de/", "status":{"online":true, "clients":4,"lastcontact":"2017-08-22T12:36:48.0Z"},"position":{"lat":50.991375,"long":13.812599,"alt":0}},
{ "id":"1275", "name":"Knoten 1275 (IT-Service-Merkelt)", "node_type":"AccessPoint", "href":"http://10.200.5.1.freifunk-dresden.de/", "status":{"online":true, "clients":0,"lastcontact":"2017-08-22T12:36:48.0Z"},"position":{"lat":51.039680,"long":14.479881,"alt":0}},
{ "id":"1276", "name":"Knoten 1276 (Christian)", "node_type":"AccessPoint", "href":"http://10.200.5.2.freifunk-dresden.de/", "status":{"online":false, "clients":0,"lastcontact":"2017-08-22T12:36:48.0Z"},"position":{"lat":51.03937,"long":13.70094,"alt":0}},
{ "id":"1277", "name":"Knoten 1277 (Christian)", "node_type":"AccessPoint", "href":"http://10.200.5.3.freifunk-dresden.de/", "status":{"online":true, "clients":4,"lastcontact":"2017-08-22T12:36:48.0Z"},"position":{"lat":51.035108,"long":13.701181,"alt":0}},
{ "id":"1278", "name":"Knoten 1278 (Patrick)", "node_type":"AccessPoint", "href":"http://10.200.5.4.freifunk-dresden.de/", "status":{"online":false, "clients":0,"lastcontact":"2017-08-22T12:36:48.0Z"},"position":{"lat":51.0215701,"long":13.7519179,"alt":0}},
{ "id":"1279", "name":"Knoten 1279 (Steak+Inn+Hotel+und+Restaurant)", "node_type":"AccessPoint", "href":"http://10.200.5.5.freifunk-dresden.de/", "status":{"online":true, "clients":0,"lastcontact":"2017-08-22T12:36:48.0Z"},"position":{"lat":51.03869,"long":14.53768,"alt":0}},
{ "id":"1280", "name":"Knoten 1280 (Steak+Inn+Hotel+und+Restaurant)", "node_type":"AccessPoint", "href":"http://10.200.5.6.freifunk-dresden.de/", "status":{"online":true, "clients":1,"lastcontact":"2017-08-22T12:36:48.0Z"},"position":{"lat":51.03890,"long":14.53785,"alt":0}},
{ "id":"1281", "name":"Knoten 1281 (Diego)", "node_type":"AccessPoint", "href":"http://10.200.5.7.freifunk-dresden.de/", "status":{"online":true, "clients":0,"lastcontact":"2017-08-22T12:36:48.0Z"},"position":{"lat":51.031226,"long":13.731876,"alt":0}},
{ "id":"1282", "name":"Knoten 1282 ()", "node_type":"AccessPoint", "href":"http://10.200.5.8.freifunk-dresden.de/", "status":{"online":true, "clients":1,"lastcontact":"2017-08-22T12:36:48.0Z"},"position":{"lat":51.0297900,"long":13.7597401,"alt":0}},
{ "id":"1283", "name":"Knoten 1283 (cal00m)", "node_type":"AccessPoint", "href":"http://10.200.5.9.freifunk-dresden.de/", "status":{"online":false, "clients":2,"lastcontact":"2017-08-22T12:36:48.0Z"},"position":{"lat":51.077800,"long":13.749,"alt":0}},
{ "id":"1284", "name":"Knoten 1284 (Christian)", "node_type":"AccessPoint", "href":"http://10.200.5.10.freifunk-dresden.de/", "status":{"online":true, "clients":1,"lastcontact":"2017-08-22T12:36:48.0Z"},"position":{"lat":51.030133,"long":13.704496,"alt":0}},
{ "id":"1285", "name":"Knoten 1285 (Werkstadtpiraten)", "node_type":"AccessPoint", "href":"http://10.200.5.11.freifunk-dresden.de/", "status":{"online":true, "clients":1,"lastcontact":"2017-08-22T12:36:48.0Z"},"position":{"lat":51.046017,"long":13.715169,"alt":0}},
{ "id":"1286", "name":"Knoten 1286 (Christian)", "node_type":"AccessPoint", "href":"http://10.200.5.12.freifunk-dresden.de/", "status":{"online":true, "clients":0,"lastcontact":"2017-08-22T12:36:48.0Z"},"position":{"lat":51.034784,"long":13.701828,"alt":0}},
{ "id":"1287", "name":"Knoten 1287 (Chris)", "node_type":"AccessPoint", "href":"http://10.200.5.13.freifunk-dresden.de/", "status":{"online":true, "clients":0,"lastcontact":"2017-08-22T12:36:48.0Z"},"position":{"lat":51.07139,"long":13.73733,"alt":0}},
{ "id":"1288", "name":"Knoten 1288 (Dersim+%E2%80%93+D%C3%BCr%C3%BCm-Kebab-Haus)", "node_type":"AccessPoint", "href":"http://10.200.5.14.freifunk-dresden.de/", "status":{"online":true, "clients":1,"lastcontact":"2017-08-22T12:36:48.0Z"},"position":{"lat":51.030477,"long":13.723814,"alt":0}},
{ "id":"1289", "name":"Knoten 1289 (Christian)", "node_type":"AccessPoint", "href":"http://10.200.5.15.freifunk-dresden.de/", "status":{"online":true, "clients":0,"lastcontact":"2017-08-22T12:36:48.0Z"},"position":{"lat":51.035141,"long":13.697464,"alt":0}},
{ "id":"1291", "name":"Knoten 1291 (datenkollektiv.net)", "node_type":"AccessPoint", "href":"http://10.200.5.17.freifunk-dresden.de/", "status":{"online":true, "clients":7,"lastcontact":"2017-08-22T12:36:48.0Z"},"position":{"lat":51.05582,"long":13.72055,"alt":0}},
{ "id":"1293", "name":"Knoten 1293 ()", "node_type":"AccessPoint", "href":"http://10.200.5.19.freifunk-dresden.de/", "status":{"online":true, "clients":0,"lastcontact":"2017-08-22T12:36:48.0Z"},"position":{"lat":51.09239,"long":13.72559,"alt":0}},
{ "id":"1294", "name":"Knoten 1294 (Christian)", "node_type":"AccessPoint", "href":"http://10.200.5.20.freifunk-dresden.de/", "status":{"online":true, "clients":13,"lastcontact":"2017-08-22T12:36:48.0Z"},"position":{"lat":51.05777,"long":13.71005,"alt":0}},
{ "id":"1296", "name":"Knoten 1296 (Umweltzentrum+Freital)", "node_type":"AccessPoint", "href":"http://10.200.5.22.freifunk-dresden.de/", "status":{"online":true, "clients":0,"lastcontact":"2017-08-22T12:36:48.0Z"},"position":{"lat":51.00328,"long":13.65769,"alt":0}},
{ "id":"1297", "name":"Knoten 1297 (Freifunk+Goerlitz)", "node_type":"AccessPoint", "href":"http://10.200.5.23.freifunk-dresden.de/", "status":{"online":true, "clients":0,"lastcontact":"2017-08-22T12:36:48.0Z"},"position":{"lat":51.153672,"long":14.976027,"alt":0}},
{ "id":"1298", "name":"Knoten 1298 (Rosenwerk)", "node_type":"AccessPoint", "href":"http://10.200.5.24.freifunk-dresden.de/", "status":{"online":true, "clients":0,"lastcontact":"2017-08-22T12:36:48.0Z"},"position":{"lat":51.046391,"long":13.716015,"alt":0}},
{ "id":"1299", "name":"Knoten 1299 (Matze)", "node_type":"AccessPoint", "href":"http://10.200.5.25.freifunk-dresden.de/", "status":{"online":true, "clients":15,"lastcontact":"2017-08-22T12:36:48.0Z"},"position":{"lat":50.91940,"long":13.32430,"alt":0}},
{ "id":"1302", "name":"Knoten 1302 (Martin)", "node_type":"AccessPoint", "href":"http://10.200.5.28.freifunk-dresden.de/", "status":{"online":false, "clients":0,"lastcontact":"2017-08-22T12:36:48.0Z"},"position":{"lat":51.116769,"long":13.741471,"alt":0}},
{ "id":"1303", "name":"Knoten 1303 (Mirko)", "node_type":"AccessPoint", "href":"http://10.200.5.29.freifunk-dresden.de/", "status":{"online":true, "clients":0,"lastcontact":"2017-08-22T12:36:48.0Z"},"position":{"lat":51.0882088,"long":13.7324908,"alt":0}},
{ "id":"1304", "name":"Knoten 1304 (Rosenwerk)", "node_type":"AccessPoint", "href":"http://10.200.5.30.freifunk-dresden.de/", "status":{"online":true, "clients":6,"lastcontact":"2017-08-22T12:36:48.0Z"},"position":{"lat":51.046617,"long":13.715737,"alt":0}},
{ "id":"1306", "name":"Knoten 1306 (MirkosKleineStation)", "node_type":"AccessPoint", "href":"http://10.200.5.32.freifunk-dresden.de/", "status":{"online":true, "clients":0,"lastcontact":"2017-08-22T12:36:48.0Z"},"position":{"lat":51.088298,"long":13.733061,"alt":0}},
{ "id":"1307", "name":"Knoten 1307 (Markus+Windisch)", "node_type":"AccessPoint", "href":"http://10.200.5.33.freifunk-dresden.de/", "status":{"online":true, "clients":2,"lastcontact":"2017-08-22T12:36:48.0Z"},"position":{"lat":51.037753,"long":13.807846,"alt":0}},
{ "id":"1308", "name":"Knoten 1308 ()", "node_type":"AccessPoint", "href":"http://10.200.5.34.freifunk-dresden.de/", "status":{"online":true, "clients":0,"lastcontact":"2017-08-22T12:36:48.0Z"},"position":{"lat":50.99901,"long":13.82263,"alt":0}},
{ "id":"1309", "name":"Knoten 1309 (Uwe+Gra%C3%9Fhoff)", "node_type":"AccessPoint", "href":"http://10.200.5.35.freifunk-dresden.de/", "status":{"online":true, "clients":0,"lastcontact":"2017-08-22T12:36:48.0Z"},"position":{"lat":51.0357049,"long":13.696350,"alt":0}},
{ "id":"1310", "name":"Knoten 1310 (IBS)", "node_type":"AccessPoint", "href":"http://10.200.5.36.freifunk-dresden.de/", "status":{"online":true, "clients":0,"lastcontact":"2017-08-22T12:36:48.0Z"},"position":{"lat":50.72081,"long":13.68652,"alt":0}},
{ "id":"1311", "name":"Knoten 1311 (Hotel+Felsenburg)", "node_type":"AccessPoint", "href":"http://10.200.5.37.freifunk-dresden.de/", "status":{"online":true, "clients":0,"lastcontact":"2017-08-22T12:36:48.0Z"},"position":{"lat":50.793889,"long":13.675000,"alt":0}},
{ "id":"1312", "name":"Knoten 1312 (Hotel+Felsenburg)", "node_type":"AccessPoint", "href":"http://10.200.5.38.freifunk-dresden.de/", "status":{"online":true, "clients":0,"lastcontact":"2017-08-22T12:36:48.0Z"},"position":{"lat":50.793889,"long":13.675000,"alt":0}},
{ "id":"1313", "name":"Knoten 1313 (Maximilian)", "node_type":"AccessPoint", "href":"http://10.200.5.39.freifunk-dresden.de/", "status":{"online":true, "clients":0,"lastcontact":"2017-08-22T12:36:48.0Z"},"position":{"lat":50.968614,"long":13.939687,"alt":0}},
{ "id":"1314", "name":"Knoten 1314 (FreifunkOL-Loeb1314)", "node_type":"AccessPoint", "href":"http://10.200.5.40.freifunk-dresden.de/", "status":{"online":true, "clients":10,"lastcontact":"2017-08-22T12:36:48.0Z"},"position":{"lat":51.10242,"long":14.66792,"alt":0}},
{ "id":"1317", "name":"Knoten 1317 (Hackerspace+Werkraum+Zittau)", "node_type":"AccessPoint", "href":"http://10.200.5.43.freifunk-dresden.de/", "status":{"online":false, "clients":0,"lastcontact":"2017-08-22T12:36:48.0Z"},"position":{"lat":50.8966,"long":14.6782,"alt":0}},
{ "id":"1318", "name":"Knoten 1318 (Maximilian)", "node_type":"AccessPoint", "href":"http://10.200.5.44.freifunk-dresden.de/", "status":{"online":true, "clients":0,"lastcontact":"2017-08-22T12:36:48.0Z"},"position":{"lat":50.967963,"long":13.950768,"alt":0}},
{ "id":"1319", "name":"Knoten 1319 (Dresdner+Tafel+e.V.)", "node_type":"AccessPoint", "href":"http://10.200.5.45.freifunk-dresden.de/", "status":{"online":false, "clients":3,"lastcontact":"2017-08-22T12:36:48.0Z"},"position":{"lat":51.041740,"long":13.717746,"alt":0}},
{ "id":"1320", "name":"Knoten 1320 (Umweltzentrum+Dresden+e.V.)", "node_type":"AccessPoint", "href":"http://10.200.5.46.freifunk-dresden.de/", "status":{"online":false, "clients":0,"lastcontact":"2017-08-22T12:36:48.0Z"},"position":{"lat":51.055150,"long":13.726617,"alt":0}},
{ "id":"1321", "name":"Knoten 1321 (Christian)", "node_type":"AccessPoint", "href":"http://10.200.5.47.freifunk-dresden.de/", "status":{"online":true, "clients":1,"lastcontact":"2017-08-22T12:36:48.0Z"},"position":{"lat":50.991375,"long":13.812599,"alt":0}},
{ "id":"1322", "name":"Knoten 1322 (j03)", "node_type":"AccessPoint", "href":"http://10.200.5.48.freifunk-dresden.de/", "status":{"online":false, "clients":2,"lastcontact":"2017-08-22T12:36:48.0Z"},"position":{"lat":51.037705,"long":13.852340,"alt":0}},
{ "id":"1323", "name":"Knoten 1323 (Martin)", "node_type":"AccessPoint", "href":"http://10.200.5.49.freifunk-dresden.de/", "status":{"online":false, "clients":0,"lastcontact":"2017-08-22T12:36:48.0Z"},"position":{"lat":51.116769,"long":13.741471,"alt":0}},
{ "id":"1324", "name":"Knoten 1324 (Christian)", "node_type":"AccessPoint", "href":"http://10.200.5.50.freifunk-dresden.de/", "status":{"online":true, "clients":1,"lastcontact":"2017-08-22T12:36:48.0Z"},"position":{"lat":50.991312,"long":13.812392,"alt":0}},
{ "id":"1326", "name":"Knoten 1326 (H+Fuchs)", "node_type":"AccessPoint", "href":"http://10.200.5.52.freifunk-dresden.de/", "status":{"online":true, "clients":0,"lastcontact":"2017-08-22T12:36:48.0Z"},"position":{"lat":51.020,"long":13.860,"alt":0}},
{ "id":"1327", "name":"Knoten 1327 (Buntes+Meissen+e.V.)", "node_type":"AccessPoint", "href":"http://10.200.5.53.freifunk-dresden.de/", "status":{"online":true, "clients":15,"lastcontact":"2017-08-22T12:36:48.0Z"},"position":{"lat":51.158135,"long":13.4640321,"alt":0}},
{ "id":"1328", "name":"Knoten 1328 (Max)", "node_type":"AccessPoint", "href":"http://10.200.5.54.freifunk-dresden.de/", "status":{"online":true, "clients":4,"lastcontact":"2017-08-22T12:36:48.0Z"},"position":{"lat":51.042925,"long":13.735307,"alt":0}},
{ "id":"1332", "name":"Knoten 1332 (Robert)", "node_type":"AccessPoint", "href":"http://10.200.5.58.freifunk-dresden.de/", "status":{"online":true, "clients":1,"lastcontact":"2017-08-22T12:36:48.0Z"},"position":{"lat":51.109111,"long":13.762052,"alt":0}},
{ "id":"1333", "name":"Knoten 1333 (Stephan)", "node_type":"AccessPoint", "href":"http://10.200.5.59.freifunk-dresden.de/", "status":{"online":true, "clients":0,"lastcontact":"2017-08-22T12:36:48.0Z"},"position":{"lat":51.033882,"long":13.642728,"alt":0}},
{ "id":"1334", "name":"Knoten 1334 (Silberteich-Wetter)", "node_type":"AccessPoint", "href":"http://10.200.5.60.freifunk-dresden.de/", "status":{"online":true, "clients":0,"lastcontact":"2017-08-22T12:36:48.0Z"},"position":{"lat":50.946633,"long":14.609888,"alt":0}},
{ "id":"1335", "name":"Knoten 1335 (Hotel+Villa+Herzog)", "node_type":"AccessPoint", "href":"http://10.200.5.61.freifunk-dresden.de/", "status":{"online":true, "clients":0,"lastcontact":"2017-08-22T12:36:48.0Z"},"position":{"lat":51.06271,"long":13.82754,"alt":0}},
{ "id":"1336", "name":"Knoten 1336 (Rapsak)", "node_type":"AccessPoint", "href":"http://10.200.5.62.freifunk-dresden.de/", "status":{"online":true, "clients":7,"lastcontact":"2017-08-22T12:36:48.0Z"},"position":{"lat":51.063286,"long":13.756749,"alt":0}},
{ "id":"1337", "name":"Knoten 1337 (Linke+Fruchtsaefte+GmbH)", "node_type":"AccessPoint", "href":"http://10.200.5.63.freifunk-dresden.de/", "status":{"online":true, "clients":13,"lastcontact":"2017-08-22T12:36:48.0Z"},"position":{"lat":50.97865,"long":14.62448,"alt":0}},
{ "id":"1340", "name":"Knoten 1340 (SirTwist)", "node_type":"AccessPoint", "href":"http://10.200.5.66.freifunk-dresden.de/", "status":{"online":true, "clients":0,"lastcontact":"2017-08-22T12:36:48.0Z"},"position":{"lat":51.0708233,"long":13.7604197,"alt":0}},
{ "id":"1341", "name":"Knoten 1341 (Mobiler+Knoten)", "node_type":"AccessPoint", "href":"http://10.200.5.67.freifunk-dresden.de/", "status":{"online":false, "clients":3,"lastcontact":"2017-08-22T12:36:48.0Z"},"position":{"lat":51.046825,"long":13.744258,"alt":0}},
{ "id":"1343", "name":"Knoten 1343 (Uwe+Oertel)", "node_type":"AccessPoint", "href":"http://10.200.5.69.freifunk-dresden.de/", "status":{"online":true, "clients":0,"lastcontact":"2017-08-22T12:36:48.0Z"},"position":{"lat":51.0555164,"long":13.8674006,"alt":0}},
{ "id":"1347", "name":"Knoten 1347 (Jakob)", "node_type":"AccessPoint", "href":"http://10.200.5.73.freifunk-dresden.de/", "status":{"online":true, "clients":1,"lastcontact":"2017-08-22T12:36:48.0Z"},"position":{"lat":51.029209,"long":13.759448,"alt":0}},
{ "id":"1349", "name":"Knoten 1349 (Hugo-Buerkner-Park)", "node_type":"AccessPoint", "href":"http://10.200.5.75.freifunk-dresden.de/", "status":{"online":false, "clients":0,"lastcontact":"2017-08-22T12:36:48.0Z"},"position":{"lat":51.022648,"long":13.765244,"alt":0}},
{ "id":"1350", "name":"Knoten 1350 (datenkollektiv.net)", "node_type":"AccessPoint", "href":"http://10.200.5.76.freifunk-dresden.de/", "status":{"online":true, "clients":1,"lastcontact":"2017-08-22T12:36:48.0Z"},"position":{"lat":51.05563,"long":13.72047,"alt":0}},
{ "id":"1351", "name":"Knoten 1351 (Bildungswerk+Weiterdenken)", "node_type":"AccessPoint", "href":"http://10.200.5.77.freifunk-dresden.de/", "status":{"online":true, "clients":0,"lastcontact":"2017-08-22T12:36:48.0Z"},"position":{"lat":51.05345,"long":13.72290,"alt":0}},
{ "id":"1353", "name":"Knoten 1353 (Michael+Lausch)", "node_type":"AccessPoint", "href":"http://10.200.5.79.freifunk-dresden.de/", "status":{"online":false, "clients":0,"lastcontact":"2017-08-22T12:36:48.0Z"},"position":{"lat":51.125738,"long":13.580685,"alt":0}},
{ "id":"1355", "name":"Knoten 1355 (Maximilian)", "node_type":"AccessPoint", "href":"http://10.200.5.81.freifunk-dresden.de/", "status":{"online":false, "clients":0,"lastcontact":"2017-08-22T12:36:48.0Z"},"position":{"lat":50.968116,"long":13.951705,"alt":0}},
{ "id":"1356", "name":"Knoten 1356 (Mr._Ole)", "node_type":"AccessPoint", "href":"http://10.200.5.82.freifunk-dresden.de/", "status":{"online":true, "clients":2,"lastcontact":"2017-08-22T12:36:48.0Z"},"position":{"lat":50.876668,"long":13.950736,"alt":0}},
{ "id":"1357", "name":"Knoten 1357 (Freifunk+%40Zittau)", "node_type":"AccessPoint", "href":"http://10.200.5.83.freifunk-dresden.de/", "status":{"online":true, "clients":6,"lastcontact":"2017-08-22T12:36:48.0Z"},"position":{"lat":50.898630,"long":14.805695,"alt":0}},
{ "id":"1359", "name":"Knoten 1359 (Christian)", "node_type":"AccessPoint", "href":"http://10.200.5.85.freifunk-dresden.de/", "status":{"online":true, "clients":0,"lastcontact":"2017-08-22T12:36:48.0Z"},"position":{"lat":51.034630,"long":13.696283,"alt":0}},
{ "id":"1365", "name":"Knoten 1365 (Hackerspace+Werkraum+Zittau)", "node_type":"AccessPoint", "href":"http://10.200.5.91.freifunk-dresden.de/", "status":{"online":false, "clients":0,"lastcontact":"2017-08-22T12:36:48.0Z"},"position":{"lat":50.8981,"long":14.6819,"alt":0}},
{ "id":"1367", "name":"Knoten 1367 (Freifunk+%40Hain)", "node_type":"AccessPoint", "href":"http://10.200.5.93.freifunk-dresden.de/", "status":{"online":true, "clients":0,"lastcontact":"2017-08-22T12:36:48.0Z"},"position":{"lat":50.833528,"long":14.722857,"alt":0}},
{ "id":"1368", "name":"Knoten 1368 (nuit)", "node_type":"AccessPoint", "href":"http://10.200.5.94.freifunk-dresden.de/", "status":{"online":true, "clients":0,"lastcontact":"2017-08-22T12:36:48.0Z"},"position":{"lat":51.079263102020626,"long":13.71531218290329,"alt":0}},
{ "id":"1370", "name":"Knoten 1370 (Jakob)", "node_type":"AccessPoint", "href":"http://10.200.5.96.freifunk-dresden.de/", "status":{"online":false, "clients":1,"lastcontact":"2017-08-22T12:36:48.0Z"},"position":{"lat":51.074687,"long":13.701990,"alt":0}},
{ "id":"1371", "name":"Knoten 1371 (Jonathan+Sieber)", "node_type":"AccessPoint", "href":"http://10.200.5.97.freifunk-dresden.de/", "status":{"online":false, "clients":0,"lastcontact":"2017-08-22T12:36:48.0Z"},"position":{"lat":51.055957,"long":13.720239,"alt":0}},
{ "id":"1373", "name":"Knoten 1373 (Werkraum+Zittau)", "node_type":"AccessPoint", "href":"http://10.200.5.99.freifunk-dresden.de/", "status":{"online":false, "clients":0,"lastcontact":"2017-08-22T12:36:48.0Z"},"position":{"lat":50.8958,"long":14.67,"alt":0}},
{ "id":"1374", "name":"Knoten 1374 (Jan)", "node_type":"AccessPoint", "href":"http://10.200.5.100.freifunk-dresden.de/", "status":{"online":false, "clients":0,"lastcontact":"2017-08-22T12:36:48.0Z"},"position":{"lat":51.01841,"long":13.69431,"alt":0}},
{ "id":"1375", "name":"Knoten 1375 (Maximilian)", "node_type":"AccessPoint", "href":"http://10.200.5.101.freifunk-dresden.de/", "status":{"online":true, "clients":3,"lastcontact":"2017-08-22T12:36:48.0Z"},"position":{"lat":50.968609,"long":13.939751,"alt":0}},
{ "id":"1379", "name":"Knoten 1379 (Datenkollektiv.net)", "node_type":"AccessPoint", "href":"http://10.200.5.105.freifunk-dresden.de/", "status":{"online":false, "clients":1,"lastcontact":"2017-08-22T12:36:48.0Z"},"position":{"lat":51.0268187,"long":13.7588749,"alt":0}},
{ "id":"1380", "name":"Knoten 1380 (Umweltzentrum+Dresden+e.V.)", "node_type":"AccessPoint", "href":"http://10.200.5.106.freifunk-dresden.de/", "status":{"online":false, "clients":1,"lastcontact":"2017-08-22T12:36:48.0Z"},"position":{"lat":51.054614,"long":13.726140,"alt":0}},
{ "id":"1384", "name":"Knoten 1384 (Buntes+Meissen+e.V.)", "node_type":"AccessPoint", "href":"http://10.200.5.110.freifunk-dresden.de/", "status":{"online":false, "clients":2,"lastcontact":"2017-08-22T12:36:48.0Z"},"position":{"lat":51.157737,"long":13.464001,"alt":0}},
{ "id":"1387", "name":"Knoten 1387 (W%C3%A4chterhaus+Zittau)", "node_type":"AccessPoint", "href":"http://10.200.5.113.freifunk-dresden.de/", "status":{"online":true, "clients":11,"lastcontact":"2017-08-22T12:36:48.0Z"},"position":{"lat":50.89721,"long":14.80444,"alt":0}},
{ "id":"1388", "name":"Knoten 1388 (HP)", "node_type":"AccessPoint", "href":"http://10.200.5.114.freifunk-dresden.de/", "status":{"online":true, "clients":0,"lastcontact":"2017-08-22T12:36:48.0Z"},"position":{"lat":50.998121,"long":13.911558,"alt":0}},
{ "id":"1389", "name":"Knoten 1389 (HP)", "node_type":"AccessPoint", "href":"http://10.200.5.115.freifunk-dresden.de/", "status":{"online":true, "clients":0,"lastcontact":"2017-08-22T12:36:48.0Z"},"position":{"lat":50.997785,"long":13.912643,"alt":0}},
{ "id":"1390", "name":"Knoten 1390 (Westparkcenter+Zittau)", "node_type":"AccessPoint", "href":"http://10.200.5.116.freifunk-dresden.de/", "status":{"online":true, "clients":3,"lastcontact":"2017-08-22T12:36:48.0Z"},"position":{"lat":50.89760,"long":14.78493,"alt":0}},
{ "id":"1391", "name":"Knoten 1391 (Freifunk+OL+-+Sparkasse+Eibau+-+ITKDienst)", "node_type":"AccessPoint", "href":"http://10.200.5.117.freifunk-dresden.de/", "status":{"online":true, "clients":1,"lastcontact":"2017-08-22T12:36:48.0Z"},"position":{"lat":50.98703,"long":14.65235,"alt":0}},
{ "id":"1393", "name":"Knoten 1393 (Christian)", "node_type":"AccessPoint", "href":"http://10.200.5.119.freifunk-dresden.de/", "status":{"online":true, "clients":3,"lastcontact":"2017-08-22T12:36:48.0Z"},"position":{"lat":51.047836,"long":13.716920,"alt":0}},
{ "id":"1396", "name":"Knoten 1396 (Rodelpark+Oderwitz)", "node_type":"AccessPoint", "href":"http://10.200.5.122.freifunk-dresden.de/", "status":{"online":true, "clients":3,"lastcontact":"2017-08-22T12:36:48.0Z"},"position":{"lat":50.96516,"long":14.70038,"alt":0}},
{ "id":"1398", "name":"Knoten 1398 (Dorian)", "node_type":"AccessPoint", "href":"http://10.200.5.124.freifunk-dresden.de/", "status":{"online":false, "clients":0,"lastcontact":"2017-08-22T12:36:48.0Z"},"position":{"lat":51.046023,"long":13.790940,"alt":0}},
{ "id":"1402", "name":"Knoten 1402 (Seeger+Sch%C3%A4nke)", "node_type":"AccessPoint", "href":"http://10.200.5.128.freifunk-dresden.de/", "status":{"online":false, "clients":0,"lastcontact":"2017-08-22T12:36:48.0Z"},"position":{"lat":50.897618,"long":14.802578,"alt":0}},
{ "id":"1403", "name":"Knoten 1403 (Maximilian)", "node_type":"AccessPoint", "href":"http://10.200.5.129.freifunk-dresden.de/", "status":{"online":true, "clients":2,"lastcontact":"2017-08-22T12:36:48.0Z"},"position":{"lat":50.974114,"long":13.936586,"alt":0}},
{ "id":"1404", "name":"Knoten 1404 (Christian)", "node_type":"AccessPoint", "href":"http://10.200.5.130.freifunk-dresden.de/", "status":{"online":false, "clients":0,"lastcontact":"2017-08-22T12:36:48.0Z"},"position":{"lat":51.033967,"long":13.693913,"alt":0}},
{ "id":"1406", "name":"Knoten 1406 (Jack+Dy+Melanche)", "node_type":"AccessPoint", "href":"http://10.200.5.132.freifunk-dresden.de/", "status":{"online":true, "clients":0,"lastcontact":"2017-08-22T12:36:48.0Z"},"position":{"lat":51.121787,"long":13.781753,"alt":0}},
{ "id":"1411", "name":"Knoten 1411 (mcnesium)", "node_type":"AccessPoint", "href":"http://10.200.5.137.freifunk-dresden.de/", "status":{"online":true, "clients":1,"lastcontact":"2017-08-22T12:36:48.0Z"},"position":{"lat":51.03314,"long":13.73207,"alt":0}},
{ "id":"1412", "name":"Knoten 1412 (Diego)", "node_type":"AccessPoint", "href":"http://10.200.5.138.freifunk-dresden.de/", "status":{"online":true, "clients":7,"lastcontact":"2017-08-22T12:36:48.0Z"},"position":{"lat":51.031246,"long":13.731916,"alt":0}},
{ "id":"1415", "name":"Knoten 1415 (Stephan)", "node_type":"AccessPoint", "href":"http://10.200.5.141.freifunk-dresden.de/", "status":{"online":true, "clients":0,"lastcontact":"2017-08-22T12:36:48.0Z"},"position":{"lat":51.033940,"long":13.642700,"alt":0}},
{ "id":"1416", "name":"Knoten 1416 ()", "node_type":"AccessPoint", "href":"http://10.200.5.142.freifunk-dresden.de/", "status":{"online":true, "clients":1,"lastcontact":"2017-08-22T12:36:48.0Z"},"position":{"lat":50.974041,"long":13.936387,"alt":0}},
{ "id":"1418", "name":"Knoten 1418 (Oberkretscham+Leutersdorf)", "node_type":"AccessPoint", "href":"http://10.200.5.144.freifunk-dresden.de/", "status":{"online":true, "clients":0,"lastcontact":"2017-08-22T12:36:48.0Z"},"position":{"lat":50.95846,"long":14.64809,"alt":0}},
{ "id":"1419", "name":"Knoten 1419 (Cafe+Panjabi+Radeberg)", "node_type":"AccessPoint", "href":"http://10.200.5.145.freifunk-dresden.de/", "status":{"online":false, "clients":0,"lastcontact":"2017-08-22T12:36:48.0Z"},"position":{"lat":51.109847,"long":13.91918,"alt":0}},
{ "id":"1420", "name":"Knoten 1420 (HP)", "node_type":"AccessPoint", "href":"http://10.200.5.146.freifunk-dresden.de/", "status":{"online":true, "clients":0,"lastcontact":"2017-08-22T12:36:48.0Z"},"position":{"lat":50.998861,"long":13.911532,"alt":0}},
{ "id":"1422", "name":"Knoten 1422 (GR%C3%9CNER+LADEN+Bautzen)", "node_type":"AccessPoint", "href":"http://10.200.5.148.freifunk-dresden.de/", "status":{"online":true, "clients":0,"lastcontact":"2017-08-22T12:36:48.0Z"},"position":{"lat":51.18170,"long":14.42348,"alt":0}},
{ "id":"1425", "name":"Knoten 1425 (Max)", "node_type":"AccessPoint", "href":"http://10.200.5.151.freifunk-dresden.de/", "status":{"online":true, "clients":0,"lastcontact":"2017-08-22T12:36:48.0Z"},"position":{"lat":50.968581,"long":13.939667,"alt":0}},
{ "id":"1428", "name":"Knoten 1428 ()", "node_type":"AccessPoint", "href":"http://10.200.5.154.freifunk-dresden.de/", "status":{"online":false, "clients":0,"lastcontact":"2017-08-22T12:36:48.0Z"},"position":{"lat":50.968587,"long":13.939659,"alt":0}},
{ "id":"1432", "name":"Knoten 1432 (Max)", "node_type":"AccessPoint", "href":"http://10.200.5.158.freifunk-dresden.de/", "status":{"online":true, "clients":2,"lastcontact":"2017-08-22T12:36:48.0Z"},"position":{"lat":50.974082,"long":13.936310,"alt":0}},
{ "id":"1433", "name":"Knoten 1433 ()", "node_type":"AccessPoint", "href":"http://10.200.5.159.freifunk-dresden.de/", "status":{"online":true, "clients":0,"lastcontact":"2017-08-22T12:36:48.0Z"},"position":{"lat":51.031847,"long":13.707266,"alt":0}},
{ "id":"1434", "name":"Knoten 1434 (Michael+Bauschke)", "node_type":"AccessPoint", "href":"http://10.200.5.160.freifunk-dresden.de/", "status":{"online":true, "clients":3,"lastcontact":"2017-08-22T12:36:48.0Z"},"position":{"lat":51.03763,"long":13.718401,"alt":0}},
{ "id":"1435", "name":"Knoten 1435 (cal00m)", "node_type":"AccessPoint", "href":"http://10.200.5.161.freifunk-dresden.de/", "status":{"online":true, "clients":3,"lastcontact":"2017-08-22T12:36:48.0Z"},"position":{"lat":51.077800,"long":13.749,"alt":0}},
{ "id":"1436", "name":"Knoten 1436 (Mario)", "node_type":"AccessPoint", "href":"http://10.200.5.162.freifunk-dresden.de/", "status":{"online":true, "clients":0,"lastcontact":"2017-08-22T12:36:48.0Z"},"position":{"lat":51.041253,"long":13.669658517842435,"alt":0}},
{ "id":"1439", "name":"Knoten 1439 (Christian)", "node_type":"AccessPoint", "href":"http://10.200.5.165.freifunk-dresden.de/", "status":{"online":true, "clients":0,"lastcontact":"2017-08-22T12:36:48.0Z"},"position":{"lat":51.07613,"long":13.74897,"alt":0}},
{ "id":"1442", "name":"Knoten 1442 (auftour24.de)", "node_type":"AccessPoint", "href":"http://10.200.5.168.freifunk-dresden.de/", "status":{"online":true, "clients":2,"lastcontact":"2017-08-22T12:36:48.0Z"},"position":{"lat":50.98006,"long":14.60958,"alt":0}},
{ "id":"1444", "name":"Knoten 1444 (AUTO+KNAPPE)", "node_type":"AccessPoint", "href":"http://10.200.5.170.freifunk-dresden.de/", "status":{"online":false, "clients":0,"lastcontact":"2017-08-22T12:36:48.0Z"},"position":{"lat":50.93092,"long":14.62005,"alt":0}},
{ "id":"1450", "name":"Knoten 1450 (Mr._Ole)", "node_type":"AccessPoint", "href":"http://10.200.5.176.freifunk-dresden.de/", "status":{"online":true, "clients":5,"lastcontact":"2017-08-22T12:36:48.0Z"},"position":{"lat":50.877696,"long":13.949641,"alt":0}},
{ "id":"1451", "name":"Knoten 1451 (Mr._Ole)", "node_type":"AccessPoint", "href":"http://10.200.5.177.freifunk-dresden.de/", "status":{"online":true, "clients":3,"lastcontact":"2017-08-22T12:36:48.0Z"},"position":{"lat":50.877524,"long":13.951532,"alt":0}},
{ "id":"1452", "name":"Knoten 1452 (Gr%C3%BCner+Laden)", "node_type":"AccessPoint", "href":"http://10.200.5.178.freifunk-dresden.de/", "status":{"online":true, "clients":3,"lastcontact":"2017-08-22T12:36:48.0Z"},"position":{"lat":50.961983,"long":13.943517,"alt":0}},
{ "id":"1453", "name":"Knoten 1453 ()", "node_type":"AccessPoint", "href":"http://10.200.5.179.freifunk-dresden.de/", "status":{"online":true, "clients":0,"lastcontact":"2017-08-22T12:36:48.0Z"},"position":{"lat":51.05584,"long":13.722795,"alt":0}},
{ "id":"1455", "name":"Knoten 1455 (Christian)", "node_type":"AccessPoint", "href":"http://10.200.5.181.freifunk-dresden.de/", "status":{"online":true, "clients":0,"lastcontact":"2017-08-22T12:36:48.0Z"},"position":{"lat":51.034562,"long":13.694767,"alt":0}},
{ "id":"1456", "name":"Knoten 1456 (Christian)", "node_type":"AccessPoint", "href":"http://10.200.5.182.freifunk-dresden.de/", "status":{"online":true, "clients":0,"lastcontact":"2017-08-22T12:36:48.0Z"},"position":{"lat":50.991484,"long":13.812753,"alt":0}},
{ "id":"1457", "name":"Knoten 1457 (Christian)", "node_type":"AccessPoint", "href":"http://10.200.5.183.freifunk-dresden.de/", "status":{"online":true, "clients":7,"lastcontact":"2017-08-22T12:36:48.0Z"},"position":{"lat":51.047836,"long":13.716920,"alt":0}},
{ "id":"1461", "name":"Knoten 1461 (Nico)", "node_type":"AccessPoint", "href":"http://10.200.5.187.freifunk-dresden.de/", "status":{"online":false, "clients":3,"lastcontact":"2017-08-22T12:36:48.0Z"},"position":{"lat":51.065650,"long":13.758682,"alt":0}},
{ "id":"1465", "name":"Knoten 1465 (Nico)", "node_type":"AccessPoint", "href":"http://10.200.5.191.freifunk-dresden.de/", "status":{"online":false, "clients":3,"lastcontact":"2017-08-22T12:36:48.0Z"},"position":{"lat":51.065707,"long":13.758416,"alt":0}},
{ "id":"1467", "name":"Knoten 1467 (Torben)", "node_type":"AccessPoint", "href":"http://10.200.5.193.freifunk-dresden.de/", "status":{"online":false, "clients":2,"lastcontact":"2017-08-22T12:36:48.0Z"},"position":{"lat":51.068559,"long":13.756385,"alt":0}},
{ "id":"1468", "name":"Knoten 1468 (Mathias)", "node_type":"AccessPoint", "href":"http://10.200.5.194.freifunk-dresden.de/", "status":{"online":false, "clients":0,"lastcontact":"2017-08-22T12:36:48.0Z"},"position":{"lat":51.15618,"long":13.455355,"alt":0}},
{ "id":"1471", "name":"Knoten 1471 (nih)", "node_type":"AccessPoint", "href":"http://10.200.5.197.freifunk-dresden.de/", "status":{"online":false, "clients":2,"lastcontact":"2017-08-22T12:36:48.0Z"},"position":{"lat":51.07416,"long":13.72937,"alt":0}},
{ "id":"1472", "name":"Knoten 1472 (Rubo77+ffki)", "node_type":"AccessPoint", "href":"http://10.200.5.198.freifunk-dresden.de/", "status":{"online":false, "clients":0,"lastcontact":"2017-08-22T12:36:48.0Z"},"position":{"lat":51.068309,"long":13.751251,"alt":0}},
{ "id":"1477", "name":"Knoten 1477 (Mole)", "node_type":"AccessPoint", "href":"http://10.200.5.203.freifunk-dresden.de/", "status":{"online":true, "clients":0,"lastcontact":"2017-08-22T12:36:48.0Z"},"position":{"lat":51.009447,"long":13.8305658,"alt":0}},
{ "id":"1480", "name":"Knoten 1480 (Siegmar+DAC476)", "node_type":"AccessPoint", "href":"http://10.200.5.206.freifunk-dresden.de/", "status":{"online":true, "clients":0,"lastcontact":"2017-08-22T12:36:48.0Z"},"position":{"lat":50.969420,"long":13.922580,"alt":0}},
{ "id":"1481", "name":"Knoten 1481 (Leonard+M.)", "node_type":"AccessPoint", "href":"http://10.200.5.207.freifunk-dresden.de/", "status":{"online":true, "clients":0,"lastcontact":"2017-08-22T12:36:48.0Z"},"position":{"lat":51.045807,"long":13.693345,"alt":0}},
{ "id":"1482", "name":"Knoten 1482 (Kleinsedlitz)", "node_type":"AccessPoint", "href":"http://10.200.5.208.freifunk-dresden.de/", "status":{"online":true, "clients":0,"lastcontact":"2017-08-22T12:36:48.0Z"},"position":{"lat":50.963935,"long":13.870714,"alt":0}},
{ "id":"1486", "name":"Knoten 1486 (err404)", "node_type":"AccessPoint", "href":"http://10.200.5.212.freifunk-dresden.de/", "status":{"online":true, "clients":3,"lastcontact":"2017-08-22T12:36:48.0Z"},"position":{"lat":51.0333171,"long":13.7096987,"alt":0}},
{ "id":"1487", "name":"Knoten 1487 (Maximilian)", "node_type":"AccessPoint", "href":"http://10.200.5.213.freifunk-dresden.de/", "status":{"online":true, "clients":2,"lastcontact":"2017-08-22T12:36:48.0Z"},"position":{"lat":50.951309,"long":13.932786,"alt":0}},
{ "id":"1488", "name":"Knoten 1488 (Maximilian)", "node_type":"AccessPoint", "href":"http://10.200.5.214.freifunk-dresden.de/", "status":{"online":true, "clients":0,"lastcontact":"2017-08-22T12:36:48.0Z"},"position":{"lat":50.968599,"long":13.939650,"alt":0}},
{ "id":"1489", "name":"Knoten 1489 (Stephan)", "node_type":"AccessPoint", "href":"http://10.200.5.215.freifunk-dresden.de/", "status":{"online":true, "clients":0,"lastcontact":"2017-08-22T12:36:48.0Z"},"position":{"lat":51.033943,"long":13.642782,"alt":0}},
{ "id":"1490", "name":"Knoten 1490 (Henrik)", "node_type":"AccessPoint", "href":"http://10.200.5.216.freifunk-dresden.de/", "status":{"online":true, "clients":0,"lastcontact":"2017-08-22T12:36:48.0Z"},"position":{"lat":51.043549,"long":13.692532,"alt":0}},
{ "id":"1491", "name":"Knoten 1491 (err404)", "node_type":"AccessPoint", "href":"http://10.200.5.217.freifunk-dresden.de/", "status":{"online":true, "clients":0,"lastcontact":"2017-08-22T12:36:48.0Z"},"position":{"lat":51.0339,"long":13.7103,"alt":0}},
{ "id":"1495", "name":"Knoten 1495 (Westparkcenter+Zittau+Fitness)", "node_type":"AccessPoint", "href":"http://10.200.5.221.freifunk-dresden.de/", "status":{"online":true, "clients":2,"lastcontact":"2017-08-22T12:36:48.0Z"},"position":{"lat":50.89755,"long":14.78483,"alt":0}},
{ "id":"1496", "name":"Knoten 1496 (Polsius)", "node_type":"AccessPoint", "href":"http://10.200.5.222.freifunk-dresden.de/", "status":{"online":false, "clients":0,"lastcontact":"2017-08-22T12:36:48.0Z"},"position":{"lat":50.937308,"long":14.611206,"alt":0}},
{ "id":"1498", "name":"Knoten 1498 (Pension+Lindengut)", "node_type":"AccessPoint", "href":"http://10.200.5.224.freifunk-dresden.de/", "status":{"online":true, "clients":0,"lastcontact":"2017-08-22T12:36:48.0Z"},"position":{"lat":51.11743,"long":13.57056,"alt":0}},
{ "id":"1499", "name":"Knoten 1499 (ITKDienst)", "node_type":"AccessPoint", "href":"http://10.200.5.225.freifunk-dresden.de/", "status":{"online":true, "clients":0,"lastcontact":"2017-08-22T12:36:48.0Z"},"position":{"lat":50.986952,"long":14.652347,"alt":0}},
{ "id":"1501", "name":"Knoten 1501 (Mr._Ole)", "node_type":"AccessPoint", "href":"http://10.200.5.227.freifunk-dresden.de/", "status":{"online":true, "clients":2,"lastcontact":"2017-08-22T12:36:48.0Z"},"position":{"lat":46.996212,"long":8.065556,"alt":0}},
{ "id":"1502", "name":"Knoten 1502 (Christian)", "node_type":"AccessPoint", "href":"http://10.200.5.228.freifunk-dresden.de/", "status":{"online":true, "clients":0,"lastcontact":"2017-08-22T12:36:48.0Z"},"position":{"lat":50.991484,"long":13.812753,"alt":0}},
{ "id":"1504", "name":"Knoten 1504 (Polsius)", "node_type":"AccessPoint", "href":"http://10.200.5.230.freifunk-dresden.de/", "status":{"online":false, "clients":2,"lastcontact":"2017-08-22T12:36:48.0Z"},"position":{"lat":50.937303,"long":14.611196,"alt":0}},
{ "id":"1507", "name":"Knoten 1507 (Kleinsedlitz+2)", "node_type":"AccessPoint", "href":"http://10.200.5.233.freifunk-dresden.de/", "status":{"online":true, "clients":0,"lastcontact":"2017-08-22T12:36:48.0Z"},"position":{"lat":50.964365,"long":13.869436,"alt":0}},
{ "id":"1509", "name":"Knoten 1509 (Polsius)", "node_type":"AccessPoint", "href":"http://10.200.5.235.freifunk-dresden.de/", "status":{"online":false, "clients":0,"lastcontact":"2017-08-22T12:36:48.0Z"},"position":{"lat":50.937303,"long":14.611196,"alt":0}},
{ "id":"1510", "name":"Knoten 1510 (Rapsak)", "node_type":"AccessPoint", "href":"http://10.200.5.236.freifunk-dresden.de/", "status":{"online":true, "clients":1,"lastcontact":"2017-08-22T12:36:48.0Z"},"position":{"lat":51.063286,"long":13.756749,"alt":0}},
{ "id":"1512", "name":"Knoten 1512 (Polsius)", "node_type":"AccessPoint", "href":"http://10.200.5.238.freifunk-dresden.de/", "status":{"online":true, "clients":0,"lastcontact":"2017-08-22T12:36:48.0Z"},"position":{"lat":50.937303,"long":14.611196,"alt":0}},
{ "id":"1515", "name":"Knoten 1515 (Kleinsedlitz)", "node_type":"AccessPoint", "href":"http://10.200.5.241.freifunk-dresden.de/", "status":{"online":true, "clients":0,"lastcontact":"2017-08-22T12:36:48.0Z"},"position":{"lat":50.963921,"long":13.870667,"alt":0}},
{ "id":"1516", "name":"Knoten 1516 (Valentin+Lippmann)", "node_type":"AccessPoint", "href":"http://10.200.5.242.freifunk-dresden.de/", "status":{"online":true, "clients":0,"lastcontact":"2017-08-22T12:36:48.0Z"},"position":{"lat":51.036565,"long":13.789476,"alt":0}},
{ "id":"1517", "name":"Knoten 1517 (Valentin+Lippmann)", "node_type":"AccessPoint", "href":"http://10.200.5.243.freifunk-dresden.de/", "status":{"online":true, "clients":1,"lastcontact":"2017-08-22T12:36:48.0Z"},"position":{"lat":51.036536,"long":13.789512,"alt":0}},
{ "id":"1519", "name":"Knoten 1519 (tb)", "node_type":"AccessPoint", "href":"http://10.200.5.245.freifunk-dresden.de/", "status":{"online":true, "clients":0,"lastcontact":"2017-08-22T12:36:48.0Z"},"position":{"lat":51.045538,"long":13.697864,"alt":0}},
{ "id":"1521", "name":"Knoten 1521 (Erik)", "node_type":"AccessPoint", "href":"http://10.200.5.247.freifunk-dresden.de/", "status":{"online":true, "clients":0,"lastcontact":"2017-08-22T12:36:48.0Z"},"position":{"lat":51.00150,"long":13.66834,"alt":0}},
{ "id":"1523", "name":"Knoten 1523 (Buntes+Mei%C3%9Fen)", "node_type":"AccessPoint", "href":"http://10.200.5.249.freifunk-dresden.de/", "status":{"online":false, "clients":0,"lastcontact":"2017-08-22T12:36:48.0Z"},"position":{"lat":51.157795,"long":13.463826,"alt":0}},
{ "id":"1524", "name":"Knoten 1524 (Christian)", "node_type":"AccessPoint", "href":"http://10.200.5.250.freifunk-dresden.de/", "status":{"online":true, "clients":1,"lastcontact":"2017-08-22T12:36:48.0Z"},"position":{"lat":51.079367,"long":13.660790,"alt":0}},
{ "id":"1525", "name":"Knoten 1525 (Freifunk+Dresden)", "node_type":"AccessPoint", "href":"http://10.200.5.251.freifunk-dresden.de/", "status":{"online":true, "clients":0,"lastcontact":"2017-08-22T12:36:48.0Z"},"position":{"lat":51.046205,"long":13.716079,"alt":0}},
{ "id":"1526", "name":"Knoten 1526 (+Meissner+Sportverein+08+e.V.)", "node_type":"AccessPoint", "href":"http://10.200.5.252.freifunk-dresden.de/", "status":{"online":false, "clients":0,"lastcontact":"2017-08-22T12:36:48.0Z"},"position":{"lat":51.171174,"long":13.482697,"alt":0}},
{ "id":"1527", "name":"Knoten 1527 (Meissner+Sportverein+08+e.V.)", "node_type":"AccessPoint", "href":"http://10.200.5.253.freifunk-dresden.de/", "status":{"online":false, "clients":0,"lastcontact":"2017-08-22T12:36:48.0Z"},"position":{"lat":51.171174,"long":13.482697,"alt":0}},
{ "id":"1528", "name":"Knoten 1528 (Meissner+Sportverein+08+e.V.)", "node_type":"AccessPoint", "href":"http://10.200.5.254.freifunk-dresden.de/", "status":{"online":false, "clients":0,"lastcontact":"2017-08-22T12:36:48.0Z"},"position":{"lat":51.171174,"long":13.482697,"alt":0}},
{ "id":"1529", "name":"Knoten 1529 (Meissner+Sportverein+08+e.V.)", "node_type":"AccessPoint", "href":"http://10.200.5.255.freifunk-dresden.de/", "status":{"online":false, "clients":0,"lastcontact":"2017-08-22T12:36:48.0Z"},"position":{"lat":51.171174,"long":13.482697,"alt":0}},
{ "id":"1530", "name":"Knoten 1530 (Meissner+Sportverein+08+e.V.)", "node_type":"AccessPoint", "href":"http://10.200.6.1.freifunk-dresden.de/", "status":{"online":false, "clients":1,"lastcontact":"2017-08-22T12:36:48.0Z"},"position":{"lat":51.171174,"long":13.482697,"alt":0}},
{ "id":"1531", "name":"Knoten 1531 (Rosenwerk)", "node_type":"AccessPoint", "href":"http://10.200.6.2.freifunk-dresden.de/", "status":{"online":true, "clients":0,"lastcontact":"2017-08-22T12:36:48.0Z"},"position":{"lat":51.046137,"long":13.715153,"alt":0}},
{ "id":"1532", "name":"Knoten 1532 (Mr.Ole+++)", "node_type":"AccessPoint", "href":"http://10.200.6.3.freifunk-dresden.de/", "status":{"online":true, "clients":1,"lastcontact":"2017-08-22T12:36:48.0Z"},"position":{"lat":50.857746,"long":13.946431,"alt":0}},
{ "id":"1533", "name":"Knoten 1533 (Gerd+Fehre)", "node_type":"AccessPoint", "href":"http://10.200.6.4.freifunk-dresden.de/", "status":{"online":false, "clients":0,"lastcontact":"2017-08-22T12:36:48.0Z"},"position":{"lat":51.1638878,"long":13.6868013,"alt":0}},
{ "id":"1534", "name":"Knoten 1534 (KGV+Am+Kanal+Moritzburg+Testbetrieb)", "node_type":"AccessPoint", "href":"http://10.200.6.5.freifunk-dresden.de/", "status":{"online":true, "clients":3,"lastcontact":"2017-08-22T12:36:48.0Z"},"position":{"lat":51.1620247,"long":13.6846679,"alt":0}},
{ "id":"1536", "name":"Knoten 1536 (Moritz)", "node_type":"AccessPoint", "href":"http://10.200.6.7.freifunk-dresden.de/", "status":{"online":true, "clients":0,"lastcontact":"2017-08-22T12:36:48.0Z"},"position":{"lat":51.025296,"long":13.827001,"alt":0}},
{ "id":"1539", "name":"Knoten 1539 (KGV+Am+Kanal+Moritzburg+Testbetrieb)", "node_type":"AccessPoint", "href":"http://10.200.6.10.freifunk-dresden.de/", "status":{"online":false, "clients":0,"lastcontact":"2017-08-22T12:36:48.0Z"},"position":{"lat":51.1620247,"long":13.6846679,"alt":0}},
{ "id":"51001", "name":"Knoten 51001 (Mirko)", "node_type":"AccessPoint", "href":"http://10.200.200.2.freifunk-dresden.de/", "status":{"online":true, "clients":0,"lastcontact":"2017-08-22T12:36:48.0Z"},"position":{"lat":51.098455,"long":13.724468,"alt":0}},
{ "id":"51002", "name":"Knoten 51002 (Stephan)", "node_type":"AccessPoint", "href":"http://10.200.200.3.freifunk-dresden.de/", "status":{"online":true, "clients":0,"lastcontact":"2017-08-22T12:36:48.0Z"},"position":{"lat":51.033865,"long":13.653252,"alt":0}},
{ "id":"51004", "name":"Knoten 51004 (Mic92)", "node_type":"AccessPoint", "href":"http://10.200.200.5.freifunk-dresden.de/", "status":{"online":false, "clients":0,"lastcontact":"2017-08-22T12:36:48.0Z"},"position":{"lat":50.478889,"long":12.335164,"alt":0}},
{ "id":"51005", "name":"Knoten 51005 (j03)", "node_type":"AccessPoint", "href":"http://10.200.200.6.freifunk-dresden.de/", "status":{"online":true, "clients":0,"lastcontact":"2017-08-22T12:36:48.0Z"},"position":{"lat":51.033865,"long":13.653252,"alt":0}}
] }
